{

"DB":[
 {
  "State": "اردبیل",
  "City": "اردبیل",
  "lat": 38.2497444152832,
  "long": 48.29428482055664

 },
 {
  "State": "اردبیل",
  "City": "اصلاندوز",
  "lat": 39.442604064941406,
  "long": 47.4100227355957
 },
 {
  "State": "اردبیل",
  "City": "آبی بیگلو",
  "lat": 38.28489685058594,
  "long": 48.55250549316406
 },
 {
  "State": "اردبیل",
  "City": "بیله سوار",
  "lat": 39.37607955932617,
  "long": 48.342708587646484
 },
 {
  "State": "اردبیل",
  "City": "پارس آباد",
  "lat": 39.64579391479492,
  "long": 47.909950256347656
 },
 {
  "State": "اردبیل",
  "City": "تازه كند",
  "latitude(φ)": "39° 34' 32.113\" N",
  "longitude(λ)": "48° 0' 58.950\" E",
  "lat": 39.57558822631836,
  "long": 48.01637649536133

 },
 {
  "State": "اردبیل",
  "City": "تازه كندانگوت",
  "latitude(φ)": "39° 2' 27.481\" N",
  "longitude(λ)": "47° 44' 37.144\" E",
  "lat": 39.04096603393555,
  "long": 47.74365234375
 },
 {
  "State": "اردبیل",
  "City": "جعفرآباد",
  "latitude(φ)": "39° 25' 59.441\" N",
  "longitude(λ)": "48° 5' 52.372\" E",
  "lat": 39.43317794799805,
  "long": 48.09788131713867
 },
 {
  "State": "اردبیل",
  "City": "خلخال",
  "lat": 37.620750427246094,
  "long": 48.527366638183594
 },
 {
  "State": "اردبیل",
  "City": "رضی",
  "lat": 38.62902069091797,
  "long": 48.09450912475586

 },
 {
  "State": "اردبیل",
  "City": "سرعین",
  "lat": 38.13766860961914,
  "long": 48.07623291015625
 },
 {
  "State": "اردبیل",
  "City": "عنبران",
  "lat": 38.48768997192383,
  "long": 48.435142517089844
 },
 {
  "State": "اردبیل",
  "City": "فخرآباد",
  "lat": 38.522987365722656,
  "long": 47.861671447753906
 },
 {
  "State": "اردبیل",
  "City": "كلور",
  "lat": 37.38945388793945,
  "long": 48.722904205322266
 },
 {
  "State": "اردبیل",
  "City": "كوراییم",
  "lat": 37.95056915283203,
  "long": 48.23551559448242
 },
 {
  "State": "اردبیل",
  "City": "گرمی",
  "lat": 39.01218795776367,
  "long": 48.08360290527344

 },
 {
  "State": "اردبیل",
  "City": "گیوی",
  "lat": 37.68416213989258,
  "long": 48.33966827392578
 },
 {
  "State": "اردبیل",
  "City": "لاهرود",
  "lat": 38.5073356628418,
  "long": 47.83047866821289
 },
 {
  "State": "اردبیل",
  "City": "مرادلو",
  "lat": 38.746761322021484,
  "long": 47.74628448486328
 },
 {
  "State": "اردبیل",
  "City": "مشگین شهر",
  "lat": 38.397186279296875,
  "long": 47.67258071899414
 },
 {
  "State": "اردبیل",
  "City": "نمین",
  "lat": 38.423648834228516,
  "long": 48.48081970214844

 },
 {
  "State": "اردبیل",
  "City": "نیر",
  "lat": 38.03521728515625,
  "long": 48.00739288330078
 },
 {
  "State": "اردبیل",
  "City": "هشتجین",
  "lat": 37.363826751708984,
  "long": 48.3245849609375
 },
 {
  "State": "اردبیل",
  "City": "هیر",
  "lat": 38.075355529785156,
  "long": 48.49797439575195
 },
 {
  "State": "اصفهان",
  "City": "ابریشم",
  "lat": 32.556114196777344,
  "long": 51.573631286621094
 },
 {
  "State": "اصفهان",
  "City": "ابوزیدآباد",
  "lat": 33.90413284301758,
  "long": 51.768001556396484
 },
 {
  "State": "اصفهان",
  "City": "اردستان",
  "lat": 33.3565788269043,
  "long": 52.3781852722168
 },
 {
  "State": "اصفهان",
  "City": "اژیه",
  "lat": 32.44017028808594,
  "long": 52.3795166015625
 },
 {
  "State": "اصفهان",
  "City": "اصفهان",
  "lat": 32.57763671875,
  "long": 51.659053802490234
 },
 {
  "State": "اصفهان",
  "City": "افوس",
  "lat": 33.024139404296875,
  "long": 50.092979431152344
 },
 {
  "State": "اصفهان",
  "City": "انارك",
  "lat": 33.306800842285156,
  "long": 53.69702911376953
 },
 {
  "State": "اصفهان",
  "City": "ایمانشهر",
  "lat": 32.4703483581543,
  "long": 51.46138381958008
 },
 {
  "State": "اصفهان",
  "City": "آران وبیدگل",
  "lat": 34.058197021484375,
  "long": 51.482486724853516
 },
 {
  "State": "اصفهان",
  "City": "بادرود",
  "lat": 33.68975067138672,
  "long": 52.01126480102539
 },
 {
  "State": "اصفهان",
  "City": "باغ بهادران",
  "lat": 32.37582015991211,
  "long": 51.19124221801758
 },
 {
  "State": "اصفهان",
  "City": "بافران",
  "lat": 32.8366813659668,
  "long": 53.14214324951172
 },
 {
  "State": "اصفهان",
  "City": "برزك",
  "lat": 33.778316497802734,
  "long": 51.23015213012695
 },
 {
  "State": "اصفهان",
  "City": "برف انبار",
  "lat": 32.995872497558594,
  "long": 50.19388198852539
 },
 {
  "State": "اصفهان",
  "City": "بوئین ومیاندشت",
  "lat": 33.0804443359375,
  "long": 50.15873336791992
 },
 {
  "State": "اصفهان",
  "City": "بهاران شهر",
  "lat": 32.51564407348633,
  "long": 51.54144287109375
 },
 {
  "State": "اصفهان",
  "City": "بهارستان",
  "lat": 32.48651123046875,
  "long": 51.77891159057617
 },
 {
  "State": "اصفهان",
  "City": "پیربكران",
  "lat": 32.465576171875,
  "long": 51.55596160888672
 },
 {
  "State": "اصفهان",
  "City": "تودشك",
  "lat": 32.728267669677734,
  "long": 52.679115295410156
 },
 {
  "State": "اصفهان",
  "City": "تیران",
  "lat": 32.704402923583984,
  "long": 51.15317916870117
 },
 {
  "State": "اصفهان",
  "City": "جندق",
  "lat": 34.04131317138672,
  "long": 54.414466857910156
 },
 {
  "State": "اصفهان",
  "City": "جوزدان",
  "lat": 32.55489730834961,
  "long": 51.37186050415039
 },
 {
  "State": "اصفهان",
  "City": "جوشقان وكامو",
  "lat": 33.59946823120117,
  "long": 51.22826385498047
 },
 {
  "State": "اصفهان",
  "City": "چادگان",
  "lat": 32.77155685424805,
  "long": 50.62685775756836
 },
 {
  "State": "اصفهان",
  "City": "چرمهین",
  "lat": 32.33835983276367,
  "long": 51.19548797607422
 },
 {
  "State": "اصفهان",
  "City": "چمگردان",
  "lat": 32.39350509643555,
  "long": 51.335350036621094
 },
 {
  "State": "اصفهان",
  "City": "حبیب آباد",
  "lat": 32.8218879699707,
  "long": 51.77587127685547
 },
 {
  "State": "اصفهان",
  "City": "حسن آباد",
  "lat": 32.136634826660156,
  "long": 52.62354278564453
 },
 {
  "State": "اصفهان",
  "City": "حنا",
  "lat": 31.19758415222168,
  "long": 51.72568130493164
 },
 {
  "State": "اصفهان",
  "City": "خالدآباد",
  "lat": 33.70183563232422,
  "long": 51.98164367675781
 },
 {
  "State": "اصفهان",
  "City": "خمینی شهر",
  "lat": 32.68333053588867,
  "long": 51.53359603881836
 },
 {
  "State": "اصفهان",
  "City": "خوانسار",
  "lat": 33.214229583740234,
  "long": 50.318870544433594
 },
 {
  "State": "اصفهان",
  "City": "خور",
  "lat": 33.77181625366211,
  "long": 55.08384323120117
 },
 {
  "State": "اصفهان",
  "City": "خوراسگان",
  "lat": 32.65510177612305,
  "long": 51.75954818725586
 },
 {
  "State": "اصفهان",
  "City": "خورزوق",
  "lat": 32.7767219543457,
  "long": 51.649837493896484
 },
 {
  "State": "اصفهان",
  "City": "داران",
  "lat": 32.9862174987793,
  "long": 50.40913772583008
 },
 {
  "State": "اصفهان",
  "City": "دامنه",
  "lat": 33.01579284667969,
  "long": 50.487770080566406
 },
 {
  "State": "اصفهان",
  "City": "درچه پیاز",
  "latitude(φ)": "32° 36' 16.132\" N",
  "longitude(λ)": "51° 32' 51.745\" E",
  "lat": 32.6044807434082,
  "long": 51.547706604003906
 },
 {
  "State": "اصفهان",
  "City": "دستگرد",
  "latitude(φ)": "32° 48' 7.369\" N",
  "longitude(λ)": "51° 39' 56.574\" E",
  "lat": 32.80204772949219,
  "long": 51.665714263916016
 },
 {
  "State": "اصفهان",
  "City": "دولت آباد",
  "latitude(φ)": "32° 48' 17.024\" N",
  "longitude(λ)": "51° 41' 36.827\" E",
  "lat": 32.80472946166992,
  "long": 51.69356155395508
 },
 {
  "State": "اصفهان",
  "City": "دهاقان",
  "latitude(φ)": "31° 55' 59.268\" N",
  "longitude(λ)": "51° 39' 15.037\" E",
  "lat": 31.933130264282227,
  "long": 51.654178619384766
 },
 {
  "State": "اصفهان",
  "City": "دهق",
  "latitude(φ)": "33° 6' 12.186\" N",
  "longitude(λ)": "50° 57' 33.026\" E",
  "lat": 33.10338592529297,
  "long": 50.95917510986328
 },
 {
  "State": "اصفهان",
  "City": "دیزیچه",
  "latitude(φ)": "32° 22' 40.552\" N",
  "longitude(λ)": "51° 30' 14.980\" E",
  "lat": 32.3779296875,
  "long": 51.5041618347168
 },
 {
  "State": "اصفهان",
  "City": "رزوه",
  "latitude(φ)": "32° 50' 6.461\" N",
  "longitude(λ)": "50° 34' 9.638\" E",
  "lat": 32.83512878417969,
  "long": 50.56934356689453
 },
 {
  "State": "اصفهان",
  "City": "رضوانشهر",
  "latitude(φ)": "32° 41' 59.064\" N",
  "longitude(λ)": "51° 6' 13.979\" E",
  "lat": 32.69974136352539,
  "long": 51.1038818359375
 },
 {
  "State": "اصفهان",
  "City": "زاینده رود",
  "latitude(φ)": "32° 22' 41.581\" N",
  "longitude(λ)": "51° 16' 23.743\" E",
  "lat": 32.37821578979492,
  "long": 51.27326202392578
 },
 {
  "State": "اصفهان",
  "City": "زرین شهر",
  "latitude(φ)": "32° 23' 38.868\" N",
  "longitude(λ)": "51° 23' 9.226\" E",
  "lat": 32.39413070678711,
  "long": 51.385894775390625
 },
 {
  "State": "اصفهان",
  "City": "زواره",
  "latitude(φ)": "33° 26' 52.292\" N",
  "longitude(λ)": "52° 29' 11.983\" E",
  "lat": 33.44786071777344,
  "long": 52.486663818359375
 },
 {
  "State": "اصفهان",
  "City": "زیباشهر",
  "latitude(φ)": "32° 22' 45.901\" N",
  "longitude(λ)": "51° 33' 53.370\" E",
  "lat": 32.379417419433594,
  "long": 51.564823150634766
 },
 {
  "State": "اصفهان",
  "City": "سده لنجان",
  "latitude(φ)": "32° 22' 38.604\" N",
  "longitude(λ)": "51° 19' 8.058\" E",
  "lat": 32.37739181518555,
  "long": 51.318904876708984
 },
 {
  "State": "اصفهان",
  "City": "سفیدشهر",
  "latitude(φ)": "34° 7' 23.027\" N",
  "longitude(λ)": "51° 21' 5.400\" E",
  "lat": 34.12306213378906,
  "long": 51.35150146484375
 },
 {
  "State": "اصفهان",
  "City": "سگزی",
  "latitude(φ)": "32° 40' 6.827\" N",
  "longitude(λ)": "52° 7' 49.685\" E",
  "lat": 32.66856384277344,
  "long": 52.13046646118164
 },
 {
  "State": "اصفهان",
  "City": "سمیرم",
  "latitude(φ)": "31° 24' 52.391\" N",
  "longitude(λ)": "51° 34' 18.728\" E",
  "lat": 31.414552688598633,
  "long": 51.571868896484375
 },
 {
  "State": "اصفهان",
  "City": "شاپورآباد",
  "latitude(φ)": "32° 50' 43.519\" N",
  "longitude(λ)": "51° 44' 35.948\" E",
  "lat": 32.845420837402344,
  "long": 51.74332046508789
 },
 {
  "State": "اصفهان",
  "City": "شاهین شهر",
  "latitude(φ)": "32° 51' 51.545\" N",
  "longitude(λ)": "51° 33' 16.834\" E",
  "lat": 32.86431884765625,
  "long": 51.5546760559082
 },
 {
  "State": "اصفهان",
  "City": "شهرضا",
  "latitude(φ)": "31° 58' 35.976\" N",
  "longitude(λ)": "51° 50' 57.934\" E",
  "lat": 31.976659774780273,
  "long": 51.84942626953125
 },
 {
  "State": "اصفهان",
  "City": "طالخونچه",
  "latitude(φ)": "32° 15' 43.506\" N",
  "longitude(λ)": "51° 33' 51.401\" E",
  "lat": 32.2620849609375,
  "long": 51.56427764892578
 },
 {
  "State": "اصفهان",
  "City": "عسگران",
  "latitude(φ)": "32° 51' 48.686\" N",
  "longitude(λ)": "50° 51' 7.924\" E",
  "lat": 32.863525390625,
  "long": 50.85219955444336
 },
 {
  "State": "اصفهان",
  "City": "علویچه",
  "latitude(φ)": "33° 3' 17.291\" N",
  "longitude(λ)": "51° 4' 53.249\" E",
  "lat": 33.05480194091797,
  "long": 51.081459045410156
 },
 {
  "State": "اصفهان",
  "City": "فرخی",
  "latitude(φ)": "33° 50' 40.488\" N",
  "longitude(λ)": "54° 56' 48.775\" E",
  "lat": 33.844581604003906,
  "long": 54.94688034057617
 },
 {
  "State": "اصفهان",
  "City": "فریدونشهر",
  "latitude(φ)": "32° 56' 23.950\" N",
  "longitude(λ)": "50° 8' 21.793\" E",
  "lat": 32.93998718261719,
  "long": 50.13938522338867
 },
 {
  "State": "اصفهان",
  "City": "فلاورجان",
  "latitude(φ)": "32° 33' 22.558\" N",
  "longitude(λ)": "51° 30' 22.648\" E",
  "lat": 32.55626678466797,
  "long": 51.506290435791016
 },
 {
  "State": "اصفهان",
  "City": "فولادشهر",
  "latitude(φ)": "32° 29' 22.312\" N",
  "longitude(λ)": "51° 24' 26.518\" E",
  "lat": 32.489532470703125,
  "long": 51.40736770629883
 },
 {
  "State": "اصفهان",
  "City": "قمصر",
  "latitude(φ)": "33° 45' 7.243\" N",
  "longitude(λ)": "51° 25' 50.333\" E",
  "lat": 33.752010345458984,
  "long": 51.43064880371094
 },
 {
  "State": "اصفهان",
  "City": "قهجاورستان",
  "latitude(φ)": "32° 42' 11.286\" N",
  "longitude(λ)": "51° 50' 6.025\" E",
  "lat": 32.7031364440918,
  "long": 51.83500671386719
 },
 {
  "State": "اصفهان",
  "City": "قهدریجان",
  "latitude(φ)": "32° 34' 25.817\" N",
  "longitude(λ)": "51° 27' 21.056\" E",
  "lat": 32.57383728027344,
  "long": 51.455848693847656
 },
 {
  "State": "اصفهان",
  "City": "كاشان",
  "latitude(φ)": "33° 59' 0.218\" N",
  "longitude(λ)": "51° 25' 55.506\" E",
  "lat": 33.983394622802734,
  "long": 51.43208312988281
 },
 {
  "State": "اصفهان",
  "City": "كركوند",
  "latitude(φ)": "32° 20' 46.658\" N",
  "longitude(λ)": "51° 26' 14.046\" E",
  "lat": 32.34629440307617,
  "long": 51.43723678588867
 },
 {
  "State": "اصفهان",
  "City": "كلیشادوسودرجان",
  "latitude(φ)": "32° 32' 29.544\" N",
  "longitude(λ)": "51° 32' 9.229\" E",
  "lat": 32.54153823852539,
  "long": 51.53589630126953
 },
 {
  "State": "اصفهان",
  "City": "كمشچه",
  "latitude(φ)": "32° 54' 20.776\" N",
  "longitude(λ)": "51° 48' 32.540\" E",
  "lat": 32.90576934814453,
  "long": 51.80904006958008
 },
 {
  "State": "اصفهان",
  "City": "كمه",
  "latitude(φ)": "31° 3' 41.278\" N",
  "longitude(λ)": "51° 35' 36.902\" E",
  "lat": 31.061466217041016,
  "long": 51.59358215332031
 },
 {
  "State": "اصفهان",
  "City": "كوشك",
  "latitude(φ)": "32° 38' 24.284\" N",
  "longitude(λ)": "51° 30' 0.378\" E",
  "lat": 32.640079498291016,
  "long": 51.50010681152344
 },
 {
  "State": "اصفهان",
  "City": "كوهپایه",
  "latitude(φ)": "32° 42' 54.392\" N",
  "longitude(λ)": "52° 25' 57.068\" E",
  "lat": 32.715110778808594,
  "long": 52.432518005371094
 },
 {
  "State": "اصفهان",
  "City": "كهریزسنگ",
  "latitude(φ)": "32° 37' 34.489\" N",
  "longitude(λ)": "51° 28' 37.621\" E",
  "lat": 32.62624740600586,
  "long": 51.477115631103516
 },
 {
  "State": "اصفهان",
  "City": "گرگاب",
  "latitude(φ)": "32° 51' 56.768\" N",
  "longitude(λ)": "51° 35' 51.551\" E",
  "lat": 32.86576843261719,
  "long": 51.597652435302734
 },
 {
  "State": "اصفهان",
  "City": "گزبرخوار",
  "latitude(φ)": "32° 48' 16.585\" N",
  "longitude(λ)": "51° 37' 7.774\" E",
  "lat": 32.80460739135742,
  "long": 51.61882781982422
 },
 {
  "State": "اصفهان",
  "City": "گلپایگان",
  "latitude(φ)": "33° 27' 3.420\" N",
  "longitude(λ)": "50° 17' 0.107\" E",
  "lat": 33.450950622558594,
  "long": 50.283363342285156
 },
 {
  "State": "اصفهان",
  "City": "گلدشت",
  "lat": 32.629905700683594,
  "long": 51.442718505859375
 },
 {
  "State": "اصفهان",
  "City": "گلشن",
  "lat": 31.92922019958496,
  "long": 51.752506256103516
 },
 {
  "State": "اصفهان",
  "City": "گلشهر",
  "lat": 33.505882263183594,
  "long": 50.465614318847656
 },
 {
  "State": "اصفهان",
  "City": "گوگد",
  "lat": 33.473445892333984,
  "long": 50.345314025878906
 },
 {
  "State": "اصفهان",
  "City": "لای بید",
  "lat": 33.45865249633789,
  "long": 50.694149017333984
 },
 {
  "State": "اصفهان",
  "City": "مباركه",
  "latitude(φ)": "32° 20' 30.390\" N",
  "longitude(λ)": "51° 30' 2.452\" E",
  "lat": 32.341773986816406,
  "long": 51.50068283081055
 },
 {
  "State": "اصفهان",
  "City": "محمدآباد",
  "latitude(φ)": "32° 19' 10.031\" N",
  "longitude(λ)": "52° 6' 14.080\" E",
  "lat": 32.319454193115234,
  "long": 52.103912353515625
 },
 {
  "State": "اصفهان",
  "City": "مشكات",
  "latitude(φ)": "34° 10' 31.249\" N",
  "longitude(λ)": "51° 16' 5.725\" E",
  "lat": 34.17534637451172,
  "long": 51.26825714111328
 },
 {
  "State": "اصفهان",
  "City": "منظریه",
  "latitude(φ)": "31° 56' 35.848\" N",
  "longitude(λ)": "51° 52' 19.661\" E",
  "lat": 31.94329071044922,
  "long": 51.872127532958984
 },
 {
  "State": "اصفهان",
  "City": "مهاباد",
  "latitude(φ)": "33° 31' 39.562\" N",
  "longitude(λ)": "52° 13' 2.374\" E",
  "lat": 33.52765655517578,
  "long": 52.21732711791992
 },
 {
  "State": "اصفهان",
  "City": "میمه",
  "latitude(φ)": "33° 26' 48.275\" N",
  "longitude(λ)": "51° 10' 13.242\" E",
  "lat": 33.44674301147461,
  "long": 51.170345306396484
 },
 {
  "State": "اصفهان",
  "City": "نائین",
  "latitude(φ)": "32° 51' 37.609\" N",
  "longitude(λ)": "53° 5' 44.210\" E",
  "lat": 32.86044692993164,
  "long": 53.09561538696289
 },
 {
  "State": "اصفهان",
  "City": "نجف آباد",
  "latitude(φ)": "32° 37' 53.530\" N",
  "longitude(λ)": "51° 21' 2.120\" E",
  "lat": 32.631534576416016,
  "long": 51.350589752197266
 },
 {
  "State": "اصفهان",
  "City": "نصرآباد",
  "latitude(φ)": "32° 16' 42.071\" N",
  "longitude(λ)": "52° 3' 43.096\" E",
  "lat": 32.27835464477539,
  "long": 52.06196975708008
 },
 {
  "State": "اصفهان",
  "City": "نطنز",
  "latitude(φ)": "33° 30' 16.855\" N",
  "longitude(λ)": "51° 55' 8.663\" E",
  "lat": 33.50468063354492,
  "long": 51.919071197509766
 },
 {
  "State": "اصفهان",
  "City": "نوش آباد",
  "latitude(φ)": "34° 4' 50.977\" N",
  "longitude(λ)": "51° 26' 16.609\" E",
  "lat": 34.08082580566406,
  "long": 51.43794631958008
 },
 {
  "State": "اصفهان",
  "City": "نیاسر",
  "latitude(φ)": "33° 58' 20.824\" N",
  "longitude(λ)": "51° 8' 56.076\" E",
  "lat": 33.972450256347656,
  "long": 51.14891052246094
 },
 {
  "State": "اصفهان",
  "City": "نیك آباد",
  "latitude(φ)": "32° 18' 10.022\" N",
  "longitude(λ)": "52° 12' 18.749\" E",
  "lat": 32.30278396606445,
  "long": 52.20520782470703
 },
 {
  "State": "اصفهان",
  "City": "ورزنه",
  "latitude(φ)": "32° 25' 13.152\" N",
  "longitude(λ)": "52° 39' 2.200\" E",
  "lat": 32.420318603515625,
  "long": 52.650611877441406
 },
 {
  "State": "اصفهان",
  "City": "ورنامخواست",
  "latitude(φ)": "32° 21' 17.849\" N",
  "longitude(λ)": "51° 22' 48.425\" E",
  "lat": 32.354957580566406,
  "long": 51.38011932373047
 },
 {
  "State": "اصفهان",
  "City": "وزوان",
  "latitude(φ)": "33° 25' 11.615\" N",
  "longitude(λ)": "51° 11' 0.013\" E",
  "lat": 33.419891357421875,
  "long": 51.1833381652832
 },
 {
  "State": "اصفهان",
  "City": "ونك",
  "latitude(φ)": "31° 31' 41.675\" N",
  "longitude(λ)": "51° 19' 35.310\" E",
  "lat": 31.528242111206055,
  "long": 51.326473236083984
 },
 {
  "State": "اصفهان",
  "City": "هرند",
  "latitude(φ)": "32° 33' 49.900\" N",
  "longitude(λ)": "52° 26' 14.244\" E",
  "lat": 32.56386184692383,
  "long": 52.43729019165039
 },
 {
  "State": "البرز",
  "City": "اشتهارد",
  "latitude(φ)": "35° 43' 28.520\" N",
  "longitude(λ)": "50° 21' 41.321\" E",
  "lat": 35.72459030151367,
  "long": 50.36147689819336
 },
 {
  "State": "البرز",
  "City": "آسارا",
  "latitude(φ)": "36° 1' 53.220\" N",
  "longitude(λ)": "51° 10' 25.946\" E",
  "lat": 36.03144836425781,
  "long": 51.17387390136719
 },
 {
  "State": "البرز",
  "City": "تنكمان",
  "latitude(φ)": "35° 53' 21.876\" N",
  "longitude(λ)": "50° 36' 53.586\" E",
  "lat": 35.889408111572266,
  "long": 50.61488342285156
 },
 {
  "State": "البرز",
  "City": "چهارباغ",
  "latitude(φ)": "35° 50' 17.358\" N",
  "longitude(λ)": "50° 50' 52.735\" E",
  "lat": 35.83815383911133,
  "long": 50.84798049926758
 },
 {
  "State": "البرز",
  "City": "سیف آباد",
  "latitude(φ)": "35° 54' 41.332\" N",
  "longitude(λ)": "50° 46' 13.937\" E",
  "lat": 35.91147994995117,
  "long": 50.770538330078125
 },
 {
  "State": "البرز",
  "City": "شهرجدیدهشتگرد",
  "latitude(φ)": "35° 59' 3.455\" N",
  "longitude(λ)": "50° 44' 28.331\" E",
  "lat": 35.98429489135742,
  "long": 50.74120330810547
 },
 {
  "State": "البرز",
  "City": "طالقان",
  "latitude(φ)": "36° 10' 22.786\" N",
  "longitude(λ)": "50° 46' 6.564\" E",
  "lat": 36.172996520996094,
  "long": 50.768489837646484
 },
 {
  "State": "البرز",
  "City": "كرج",
  "latitude(φ)": "35° 43' 28.996\" N",
  "longitude(λ)": "50° 57' 9.954\" E",
  "lat": 35.7247200012207,
  "long": 50.95276641845703
 },
 {
  "State": "البرز",
  "City": "كمال شهر",
  "latitude(φ)": "35° 50' 45.733\" N",
  "longitude(λ)": "50° 53' 2.580\" E",
  "lat": 35.846038818359375,
  "long": 50.88404846191406
 },
 {
  "State": "البرز",
  "City": "كوهسار",
  "latitude(φ)": "35° 57' 20.412\" N",
  "longitude(λ)": "50° 47' 36.722\" E",
  "lat": 35.95566940307617,
  "long": 50.79353332519531
 },
 {
  "State": "البرز",
  "City": "گرمدره",
  "latitude(φ)": "35° 44' 40.351\" N",
  "longitude(λ)": "51° 4' 7.885\" E",
  "lat": 35.74454116821289,
  "long": 51.06885528564453
 },
 {
  "State": "البرز",
  "City": "ماهدشت",
  "latitude(φ)": "35° 43' 39.220\" N",
  "longitude(λ)": "50° 48' 22.061\" E",
  "lat": 35.727561950683594,
  "long": 50.806129455566406
 },
 {
  "State": "البرز",
  "City": "محمدشهر",
  "latitude(φ)": "35° 44' 11.918\" N",
  "longitude(λ)": "50° 53' 58.384\" E",
  "lat": 35.73664474487305,
  "long": 50.89955139160156
 },
 {
  "State": "البرز",
  "City": "مشكین دشت",
  "latitude(φ)": "35° 44' 54.193\" N",
  "longitude(λ)": "50° 56' 26.804\" E",
  "lat": 35.74838638305664,
  "long": 50.94078063964844
 },
 {
  "State": "البرز",
  "City": "نظرآباد",
  "latitude(φ)": "35° 57' 7.016\" N",
  "longitude(λ)": "50° 36' 16.326\" E",
  "lat": 35.95195007324219,
  "long": 50.60453414916992
 },
 {
  "State": "البرز",
  "City": "هشتگرد",
  "latitude(φ)": "35° 57' 2.462\" N",
  "longitude(λ)": "50° 41' 1.900\" E",
  "lat": 35.95068359375,
  "long": 50.683860778808594
 },
 {
  "State": "ایلام",
  "City": "اركواز",
  "latitude(φ)": "33° 23' 13.592\" N",
  "longitude(λ)": "46° 35' 51.806\" E",
  "lat": 33.387107849121094,
  "long": 46.59772491455078
 },
 {
  "State": "ایلام",
  "City": "ایلام",
  "latitude(φ)": "33° 34' 30.198\" N",
  "longitude(λ)": "46° 24' 59.105\" E",
  "lat": 33.57505416870117,
  "long": 46.41641616821289
 },
 {
  "State": "ایلام",
  "City": "ایوان",
  "latitude(φ)": "33° 49' 45.674\" N",
  "longitude(λ)": "46° 18' 22.072\" E",
  "lat": 33.82935333251953,
  "long": 46.306129455566406
 },
 {
  "State": "ایلام",
  "City": "آبدانان",
  "latitude(φ)": "32° 59' 18.071\" N",
  "longitude(λ)": "47° 25' 26.746\" E",
  "lat": 32.98835372924805,
  "long": 47.424095153808594
 },
 {
  "State": "ایلام",
  "City": "آسمان آباد",
  "latitude(φ)": "33° 50' 57.779\" N",
  "longitude(λ)": "46° 27' 56.254\" E",
  "lat": 33.84938430786133,
  "long": 46.46562576293945
 },
 {
  "State": "ایلام",
  "City": "بدره",
  "latitude(φ)": "33° 18' 25.812\" N",
  "longitude(λ)": "47° 2' 17.992\" E",
  "lat": 33.30717086791992,
  "long": 47.038330078125
 },
 {
  "State": "ایلام",
  "City": "پهله",
  "latitude(φ)": "33° 0' 41.242\" N",
  "longitude(λ)": "46° 53' 0.809\" E",
  "lat": 33.01145553588867,
  "long": 46.8835563659668
 },
 {
  "State": "ایلام",
  "City": "توحید",
  "latitude(φ)": "33° 43' 36.556\" N",
  "longitude(λ)": "47° 4' 5.855\" E",
  "lat": 33.72682189941406,
  "long": 47.068294525146484
 },
 {
  "State": "ایلام",
  "City": "چوار",
  "latitude(φ)": "33° 41' 30.869\" N",
  "longitude(λ)": "46° 17' 49.758\" E",
  "lat": 33.69190979003906,
  "long": 46.29715347290039
 },
 {
  "State": "ایلام",
  "City": "دره شهر",
  "latitude(φ)": "33° 8' 58.150\" N",
  "longitude(λ)": "47° 22' 53.972\" E",
  "lat": 33.14948654174805,
  "long": 47.38166046142578
 },
 {
  "State": "ایلام",
  "City": "دلگشا",
  "latitude(φ)": "33° 24' 20.560\" N",
  "longitude(λ)": "46° 35' 39.437\" E",
  "lat": 33.40571212768555,
  "long": 46.59428787231445
 },
 {
  "State": "ایلام",
  "City": "دهلران",
  "latitude(φ)": "32° 41' 24.724\" N",
  "longitude(λ)": "47° 16' 15.074\" E",
  "lat": 32.69020080566406,
  "long": 47.27085494995117
 },
 {
  "State": "ایلام",
  "City": "زرنه",
  "latitude(φ)": "33° 55' 34.367\" N",
  "longitude(λ)": "46° 11' 12.192\" E",
  "lat": 33.926212310791016,
  "long": 46.18672180175781
 },
 {
  "State": "ایلام",
  "City": "سراب باغ",
  "latitude(φ)": "32° 53' 48.016\" N",
  "longitude(λ)": "47° 34' 21.472\" E",
  "lat": 32.896671295166016,
  "long": 47.5726318359375
 },
 {
  "State": "ایلام",
  "City": "سرابله",
  "latitude(φ)": "33° 46' 5.614\" N",
  "longitude(λ)": "46° 33' 40.921\" E",
  "lat": 33.768226623535156,
  "long": 46.56136703491211
 },
 {
  "State": "ایلام",
  "City": "صالح آباد",
  "latitude(φ)": "33° 28' 7.583\" N",
  "longitude(λ)": "46° 11' 27.834\" E",
  "lat": 33.468772888183594,
  "long": 46.19106674194336
 },
 {
  "State": "ایلام",
  "City": "لومار",
  "latitude(φ)": "33° 34' 1.870\" N",
  "longitude(λ)": "46° 48' 40.874\" E",
  "lat": 33.56718444824219,
  "long": 46.81135559082031
 },
 {
  "State": "ایلام",
  "City": "مورموری",
  "latitude(φ)": "32° 43' 34.752\" N",
  "longitude(λ)": "47° 40' 30.356\" E",
  "lat": 32.726318359375,
  "long": 47.67509841918945
 },
 {
  "State": "ایلام",
  "City": "موسیان",
  "latitude(φ)": "32° 31' 12.666\" N",
  "longitude(λ)": "47° 22' 37.452\" E",
  "lat": 32.52018356323242,
  "long": 47.377071380615234
 },
 {
  "State": "ایلام",
  "City": "مهران",
  "latitude(φ)": "33° 7' 19.304\" N",
  "longitude(λ)": "46° 10' 22.404\" E",
  "lat": 33.12202835083008,
  "long": 46.172889709472656
 },
 {
  "State": "ایلام",
  "City": "میمه ",
  "latitude(φ)": "33° 13' 35.846\" N",
  "longitude(λ)": "46° 55' 7.136\" E",
  "lat": 33.22662353515625,
  "long": 46.91864776611328
 },
 {
  "State": "آذربایجان شرقی",
  "City": "اسكو",
  "latitude(φ)": "37° 55' 4.008\" N",
  "longitude(λ)": "46° 7' 28.085\" E",
  "lat": 37.917781829833984,
  "long": 46.12446975708008
 },
 {
  "State": "آذربایجان شرقی",
  "City": "اهر",
  "latitude(φ)": "38° 28' 28.319\" N",
  "longitude(λ)": "47° 4' 15.539\" E",
  "lat": 38.47453308105469,
  "long": 47.07098388671875
 },
 {
  "State": "آذربایجان شرقی",
  "City": "ایلخچی",
  "latitude(φ)": "37° 56' 12.271\" N",
  "longitude(λ)": "45° 58' 55.150\" E",
  "lat": 37.93674087524414,
  "long": 45.98198699951172
 },
 {
  "State": "آذربایجان شرقی",
  "City": "آبش احمد",
  "latitude(φ)": "39° 2' 24.504\" N",
  "longitude(λ)": "47° 19' 2.507\" E",
  "lat": 39.040138244628906,
  "long": 47.31736373901367
 },
 {
  "State": "آذربایجان شرقی",
  "City": "آذرشهر",
  "latitude(φ)": "37° 45' 58.248\" N",
  "longitude(λ)": "45° 58' 35.216\" E",
  "lat": 37.766178131103516,
  "long": 45.97644805908203
 },
 {
  "State": "آذربایجان شرقی",
  "City": "آقكند",
  "latitude(φ)": "37° 15' 12.139\" N",
  "longitude(λ)": "48° 3' 55.692\" E",
  "lat": 37.25337219238281,
  "long": 48.06547164916992
 },
 {
  "State": "آذربایجان شرقی",
  "City": "باسمنج",
  "latitude(φ)": "37° 59' 39.682\" N",
  "longitude(λ)": "46° 28' 29.089\" E",
  "lat": 37.994354248046875,
  "long": 46.47474670410156
 },
 {
  "State": "آذربایجان شرقی",
  "City": "بخشایش",
  "latitude(φ)": "38° 7' 54.667\" N",
  "longitude(λ)": "46° 56' 50.885\" E",
  "lat": 38.13185119628906,
  "long": 46.94746780395508
 },
 {
  "State": "آذربایجان شرقی",
  "City": "بستان آباد",
  "latitude(φ)": "37° 50' 13.182\" N",
  "longitude(λ)": "46° 49' 51.467\" E",
  "lat": 37.83699417114258,
  "long": 46.830963134765625
 },
 {
  "State": "آذربایجان شرقی",
  "City": "بناب",
  "latitude(φ)": "37° 20' 44.113\" N",
  "longitude(λ)": "46° 3' 58.324\" E",
  "lat": 37.34558868408203,
  "long": 46.066200256347656
 },
 {
  "State": "آذربایجان شرقی",
  "City": "بناب جدید",
  "latitude(φ)": "38° 25' 23.898\" N",
  "longitude(λ)": "45° 54' 25.232\" E",
  "lat": 38.42330551147461,
  "long": 45.90700912475586
 },
 {
  "State": "آذربایجان شرقی",
  "City": "تبریز",
  "latitude(φ)": "38° 4' 45.448\" N",
  "longitude(λ)": "46° 17' 20.940\" E",
  "lat": 38.07929229736328,
  "long": 46.28915023803711
 },
 {
  "State": "آذربایجان شرقی",
  "City": "ترك",
  "latitude(φ)": "37° 36' 27.662\" N",
  "longitude(λ)": "47° 46' 5.484\" E",
  "lat": 37.60768508911133,
  "long": 47.7681884765625
 },
 {
  "State": "آذربایجان شرقی",
  "City": "تركمانچای",
  "latitude(φ)": "37° 34' 49.580\" N",
  "longitude(λ)": "47° 23' 29.231\" E",
  "lat": 37.580440521240234,
  "long": 47.39145278930664
 },
 {
  "State": "آذربایجان شرقی",
  "City": "تسوج",
  "latitude(φ)": "38° 18' 37.984\" N",
  "longitude(λ)": "45° 22' 13.494\" E",
  "lat": 38.310550689697266,
  "long": 45.37041473388672
 },
 {
  "State": "آذربایجان شرقی",
  "City": "تیكمه داش",
  "latitude(φ)": "37° 43' 42.204\" N",
  "longitude(λ)": "46° 56' 44.902\" E",
  "lat": 37.728389739990234,
  "long": 46.945804595947266
 },
 {
  "State": "آذربایجان شرقی",
  "City": "جلفا",
  "latitude(φ)": "38° 56' 5.150\" N",
  "longitude(λ)": "45° 38' 19.932\" E",
  "lat": 38.93476486206055,
  "long": 45.63887023925781
 },
 {
  "State": "آذربایجان شرقی",
  "City": "خاروانا",
  "latitude(φ)": "38° 40' 58.804\" N",
  "longitude(λ)": "46° 10' 7.111\" E",
  "lat": 38.68300247192383,
  "long": 46.16864013671875
 },
 {
  "State": "آذربایجان شرقی",
  "City": "خامنه",
  "latitude(φ)": "38° 11' 38.177\" N",
  "longitude(λ)": "45° 37' 58.649\" E",
  "lat": 38.193939208984375,
  "long": 45.632957458496094
 },
 {
  "State": "آذربایجان شرقی",
  "City": "خراجو",
  "latitude(φ)": "37° 18' 41.933\" N",
  "longitude(λ)": "46° 31' 53.522\" E",
  "lat": 37.311649322509766,
  "long": 46.531532287597656
 },
 {
  "State": "آذربایجان شرقی",
  "City": "خسروشهر",
  "latitude(φ)": "37° 57' 15.746\" N",
  "longitude(λ)": "46° 3' 2.473\" E",
  "lat": 37.95437240600586,
  "long": 46.05068588256836
 },
 {
  "State": "آذربایجان شرقی",
  "City": "خمارلو",
  "latitude(φ)": "39° 8' 52.832\" N",
  "longitude(λ)": "47° 2' 5.125\" E",
  "lat": 39.14801025390625,
  "long": 47.03475570678711
 },
 {
  "State": "آذربایجان شرقی",
  "City": "خواجه",
  "latitude(φ)": "38° 9' 16.902\" N",
  "longitude(λ)": "46° 35' 12.872\" E",
  "lat": 38.154693603515625,
  "long": 46.586910247802734
 },
 {
  "State": "آذربایجان شرقی",
  "City": "دوزدوزان",
  "latitude(φ)": "37° 56' 57.595\" N",
  "longitude(λ)": "47° 7' 11.870\" E",
  "lat": 37.94933319091797,
  "long": 47.119964599609375
 },
 {
  "State": "آذربایجان شرقی",
  "City": "زرنق",
  "latitude(φ)": "38° 5' 30.638\" N",
  "longitude(λ)": "47° 4' 54.134\" E",
  "lat": 38.09184265136719,
  "long": 47.081703186035156
 },
 {
  "State": "آذربایجان شرقی",
  "City": "زنوز",
  "latitude(φ)": "38° 35' 16.778\" N",
  "longitude(λ)": "45° 50' 3.797\" E",
  "lat": 38.58799362182617,
  "long": 45.834388732910156
 },
 {
  "State": "آذربایجان شرقی",
  "City": "سراب",
  "latitude(φ)": "37° 56' 27.589\" N",
  "longitude(λ)": "47° 32' 7.199\" E",
  "lat": 37.94099807739258,
  "long": 47.53533172607422
 },
 {
  "State": "آذربایجان شرقی",
  "City": "سردرود",
  "latitude(φ)": "38° 1' 54.408\" N",
  "longitude(λ)": "46° 8' 52.494\" E",
  "lat": 38.03178024291992,
  "long": 46.14791488647461
 },
 {
  "State": "آذربایجان شرقی",
  "City": "سیس",
  "latitude(φ)": "38° 11' 38.677\" N",
  "longitude(λ)": "45° 48' 50.713\" E",
  "lat": 38.19407653808594,
  "long": 45.8140869140625
 },
 {
  "State": "آذربایجان شرقی",
  "City": "سیه رود",
  "latitude(φ)": "38° 52' 10.268\" N",
  "longitude(λ)": "46° 0' 6.142\" E",
  "lat": 38.8695182800293,
  "long": 46.001705169677734
 },
 {
  "State": "آذربایجان شرقی",
  "City": "شبستر",
  "latitude(φ)": "38° 10' 49.796\" N",
  "longitude(λ)": "45° 42' 5.015\" E",
  "lat": 38.18050003051758,
  "long": 45.701393127441406
 },
 {
  "State": "آذربایجان شرقی",
  "City": "شربیان",
  "latitude(φ)": "37° 52' 53.591\" N",
  "longitude(λ)": "47° 5' 59.860\" E",
  "lat": 37.881553649902344,
  "long": 47.09996032714844
 },
 {
  "State": "آذربایجان شرقی",
  "City": "شرفخانه",
  "latitude(φ)": "38° 10' 40.213\" N",
  "longitude(λ)": "45° 29' 24.932\" E",
  "lat": 38.17783737182617,
  "long": 45.490257263183594
 },
 {
  "State": "آذربایجان شرقی",
  "City": "شندآباد",
  "latitude(φ)": "38° 8' 31.682\" N",
  "longitude(λ)": "45° 37' 21.072\" E",
  "lat": 38.14213562011719,
  "long": 45.622520446777344
 },
 {
  "State": "آذربایجان شرقی",
  "City": "شهرجدیدسهند",
  "latitude(φ)": "37° 56' 42.324\" N",
  "longitude(λ)": "46° 7' 15.632\" E",
  "lat": 37.945091247558594,
  "long": 46.121009826660156
 },
 {
  "State": "آذربایجان شرقی",
  "City": "صوفیان",
  "latitude(φ)": "38° 16' 43.036\" N",
  "longitude(λ)": "45° 58' 53.821\" E",
  "lat": 38.278621673583984,
  "long": 45.98161697387695
 },
 {
  "State": "آذربایجان شرقی",
  "City": "عجب شیر",
  "latitude(φ)": "37° 28' 37.564\" N",
  "longitude(λ)": "45° 53' 41.395\" E",
  "lat": 37.47710037231445,
  "long": 45.894832611083984
 },
 {
  "State": "آذربایجان شرقی",
  "City": "قره آغاج",
  "latitude(φ)": "37° 7' 44.764\" N",
  "longitude(λ)": "46° 58' 20.071\" E",
  "lat": 37.12910079956055,
  "long": 46.97224044799805
 },
 {
  "State": "آذربایجان شرقی",
  "City": "كشكسرای",
  "latitude(φ)": "38° 27' 36.194\" N",
  "longitude(λ)": "45° 34' 8.170\" E",
  "lat": 38.460052490234375,
  "long": 45.56893539428711
 },
 {
  "State": "آذربایجان شرقی",
  "City": "كلوانق",
  "latitude(φ)": "38° 6' 4.493\" N",
  "longitude(λ)": "46° 59' 35.488\" E",
  "lat": 38.10124969482422,
  "long": 46.99319076538086
 },
 {
  "State": "آذربایجان شرقی",
  "City": "كلیبر",
  "latitude(φ)": "38° 51' 53.453\" N",
  "longitude(λ)": "47° 2' 26.819\" E",
  "lat": 38.86484909057617,
  "long": 47.0407829284668
 },
 {
  "State": "آذربایجان شرقی",
  "City": "كوزه كنان",
  "latitude(φ)": "38° 11' 1.694\" N",
  "longitude(λ)": "45° 34' 38.975\" E",
  "lat": 38.18380355834961,
  "long": 45.577491760253906
 },
 {
  "State": "آذربایجان شرقی",
  "City": "گوگان",
  "latitude(φ)": "37° 46' 8.879\" N",
  "longitude(λ)": "45° 54' 16.452\" E",
  "lat": 37.769134521484375,
  "long": 45.904571533203125
 },
 {
  "State": "آذربایجان شرقی",
  "City": "لیلان",
  "latitude(φ)": "37° 0' 23.220\" N",
  "longitude(λ)": "46° 12' 20.045\" E",
  "lat": 37.00645065307617,
  "long": 46.20556640625
 },
 {
  "State": "آذربایجان شرقی",
  "City": "مراغه",
  "latitude(φ)": "37° 23' 9.726\" N",
  "longitude(λ)": "46° 14' 0.978\" E",
  "lat": 37.38603591918945,
  "long": 46.233604431152344
 },
 {
  "State": "آذربایجان شرقی",
  "City": "مرند",
  "latitude(φ)": "38° 25' 54.980\" N",
  "longitude(λ)": "45° 46' 19.362\" E",
  "lat": 38.43193817138672,
  "long": 45.77204513549805
 },
 {
  "State": "آذربایجان شرقی",
  "City": "ملكان",
  "latitude(φ)": "37° 8' 33.115\" N",
  "longitude(λ)": "46° 6' 1.354\" E",
  "lat": 37.14253234863281,
  "long": 46.10037612915039
 },
 {
  "State": "آذربایجان شرقی",
  "City": "ممقان",
  "latitude(φ)": "37° 50' 19.090\" N",
  "longitude(λ)": "45° 58' 17.602\" E",
  "lat": 37.8386344909668,
  "long": 45.9715576171875
 },
 {
  "State": "آذربایجان شرقی",
  "City": "مهربان",
  "latitude(φ)": "38° 4' 53.731\" N",
  "longitude(λ)": "47° 7' 54.019\" E",
  "lat": 38.08159255981445,
  "long": 47.13167190551758
 },
 {
  "State": "آذربایجان شرقی",
  "City": "میانه",
  "latitude(φ)": "37° 25' 14.542\" N",
  "longitude(λ)": "47° 42' 58.860\" E",
  "lat": 37.42070770263672,
  "long": 47.71635055541992
 },
 {
  "State": "آذربایجان شرقی",
  "City": "نظركهریزی",
  "latitude(φ)": "37° 20' 50.327\" N",
  "longitude(λ)": "46° 45' 43.510\" E",
  "lat": 37.347312927246094,
  "long": 46.7620849609375
 },
 {
  "State": "آذربایجان شرقی",
  "City": "وایقان",
  "latitude(φ)": "38° 7' 51.020\" N",
  "longitude(λ)": "45° 42' 46.019\" E",
  "lat": 38.13084030151367,
  "long": 45.71278381347656
 },
 {
  "State": "آذربایجان شرقی",
  "City": "ورزقان",
  "latitude(φ)": "38° 30' 31.342\" N",
  "longitude(λ)": "46° 39' 1.238\" E",
  "lat": 38.508705139160156,
  "long": 46.65034484863281
 },
 {
  "State": "آذربایجان شرقی",
  "City": "هادیشهر",
  "latitude(φ)": "38° 50' 18.344\" N",
  "longitude(λ)": "45° 39' 46.469\" E",
  "lat": 38.83842849731445,
  "long": 45.662906646728516
 },
 {
  "State": "آذربایجان شرقی",
  "City": "هریس",
  "latitude(φ)": "38° 14' 58.643\" N",
  "longitude(λ)": "47° 7' 1.628\" E",
  "lat": 38.2496223449707,
  "long": 47.11711883544922
 },
 {
  "State": "آذربایجان شرقی",
  "City": "هشترود",
  "latitude(φ)": "37° 28' 14.794\" N",
  "longitude(λ)": "47° 3' 34.816\" E",
  "lat": 37.47077560424805,
  "long": 47.059669494628906
 },
 {
  "State": "آذربایجان شرقی",
  "City": "هوراند",
  "latitude(φ)": "38° 51' 25.880\" N",
  "longitude(λ)": "47° 21' 54.454\" E",
  "lat": 38.8571891784668,
  "long": 47.36512756347656
 },
 {
  "State": "آذربایجان شرقی",
  "City": "یامچی",
  "latitude(φ)": "38° 31' 17.969\" N",
  "longitude(λ)": "45° 38' 24.929\" E",
  "lat": 38.52165985107422,
  "long": 45.6402587890625
 },
 {
  "State": "آذربایجان غربی",
  "City": "ارومیه",
  "latitude(φ)": "37° 32' 22.340\" N",
  "longitude(λ)": "45° 3' 27.540\" E",
  "lat": 37.5395393371582,
  "long": 45.05765151977539
 },
 {
  "State": "آذربایجان غربی",
  "City": "اشنویه",
  "latitude(φ)": "37° 2' 24.763\" N",
  "longitude(λ)": "45° 6' 0.166\" E",
  "lat": 37.04021072387695,
  "long": 45.10004425048828
 },
 {
  "State": "آذربایجان غربی",
  "City": "ایواوغلی",
  "latitude(φ)": "38° 43' 7.162\" N",
  "longitude(λ)": "45° 12' 41.076\" E",
  "lat": 38.71865463256836,
  "long": 45.21141052246094
 },
 {
  "State": "آذربایجان غربی",
  "City": "آواجیق",
  "latitude(φ)": "39° 19' 54.257\" N",
  "longitude(λ)": "44° 9' 11.196\" E",
  "lat": 39.33173751831055,
  "long": 44.15311050415039
 },
 {
  "State": "آذربایجان غربی",
  "City": "باروق",
  "latitude(φ)": "36° 57' 3.492\" N",
  "longitude(λ)": "46° 19' 11.914\" E",
  "lat": 36.95096969604492,
  "long": 46.319976806640625
 },
 {
  "State": "آذربایجان غربی",
  "City": "بازرگان",
  "latitude(φ)": "39° 23' 39.260\" N",
  "longitude(λ)": "44° 23' 12.084\" E",
  "lat": 39.39423751831055,
  "long": 44.386688232421875
 },
 {
  "State": "آذربایجان غربی",
  "City": "بوكان",
  "latitude(φ)": "36° 30' 28.753\" N",
  "longitude(λ)": "46° 12' 23.976\" E",
  "lat": 36.50798797607422,
  "long": 46.206661224365234
 },
 {
  "State": "آذربایجان غربی",
  "City": "پلدشت",
  "latitude(φ)": "39° 20' 52.264\" N",
  "longitude(λ)": "45° 4' 6.132\" E",
  "lat": 39.34785079956055,
  "long": 45.0683708190918
 },
 {
  "State": "آذربایجان غربی",
  "City": "پیرانشهر",
  "latitude(φ)": "36° 41' 38.177\" N",
  "longitude(λ)": "45° 8' 28.302\" E",
  "lat": 36.693939208984375,
  "long": 45.14119338989258
 },
 {
  "State": "آذربایجان غربی",
  "City": "تازه شهر",
  "latitude(φ)": "38° 10' 32.761\" N",
  "longitude(λ)": "44° 41' 26.927\" E",
  "lat": 38.17576599121094,
  "long": 44.69081115722656
 },
 {
  "State": "آذربایجان غربی",
  "City": "تكاب",
  "latitude(φ)": "36° 24' 15.192\" N",
  "longitude(λ)": "47° 6' 36.583\" E",
  "lat": 36.40422058105469,
  "long": 47.11016082763672
 },
 {
  "State": "آذربایجان غربی",
  "City": "چهاربرج",
  "latitude(φ)": "37° 7' 32.779\" N",
  "longitude(λ)": "45° 58' 32.030\" E",
  "lat": 37.125770568847656,
  "long": 45.975563049316406
 },
 {
  "State": "آذربایجان غربی",
  "City": "خلیفان",
  "latitude(φ)": "36° 30' 25.510\" N",
  "longitude(λ)": "45° 47' 47.310\" E",
  "lat": 36.50708770751953,
  "long": 45.79647445678711
 },
 {
  "State": "آذربایجان غربی",
  "City": "خوی",
  "latitude(φ)": "38° 31' 13.066\" N",
  "longitude(λ)": "44° 57' 16.754\" E",
  "lat": 38.520294189453125,
  "long": 44.954654693603516
 },
 {
  "State": "آذربایجان غربی",
  "City": "دیزج دیز",
  "latitude(φ)": "38° 27' 39.226\" N",
  "longitude(λ)": "45° 1' 24.406\" E",
  "lat": 38.46089553833008,
  "long": 45.02344512939453
 },
 {
  "State": "آذربایجان غربی",
  "City": "ربط",
  "latitude(φ)": "36° 12' 40.579\" N",
  "longitude(λ)": "45° 33' 6.268\" E",
  "lat": 36.211273193359375,
  "long": 45.55174255371094
 },
 {
  "State": "آذربایجان غربی",
  "City": "سردشت",
  "latitude(φ)": "36° 9' 14.378\" N",
  "longitude(λ)": "45° 28' 44.810\" E",
  "lat": 36.153995513916016,
  "long": 45.4791145324707
 },
 {
  "State": "آذربایجان غربی",
  "City": "سرو",
  "latitude(φ)": "37° 43' 21.832\" N",
  "longitude(λ)": "44° 39' 1.548\" E",
  "lat": 37.72273254394531,
  "long": 44.650428771972656
 },
 {
  "State": "آذربایجان غربی",
  "City": "سلماس",
  "latitude(φ)": "38° 11' 55.457\" N",
  "longitude(λ)": "44° 45' 57.712\" E",
  "lat": 38.19873809814453,
  "long": 44.766029357910156
 },
 {
  "State": "آذربایجان غربی",
  "City": "سیلوانه",
  "latitude(φ)": "37° 25' 20.744\" N",
  "longitude(λ)": "44° 51' 4.763\" E",
  "lat": 37.422428131103516,
  "long": 44.851322174072266
 },
 {
  "State": "آذربایجان غربی",
  "City": "سیمینه",
  "latitude(φ)": "36° 43' 32.502\" N",
  "longitude(λ)": "46° 9' 11.052\" E",
  "lat": 36.7256965637207,
  "long": 46.15306854248047
 },
 {
  "State": "آذربایجان غربی",
  "City": "سیه چشمه",
  "latitude(φ)": "39° 4' 9.041\" N",
  "longitude(λ)": "44° 23' 14.852\" E",
  "lat": 39.06917953491211,
  "long": 44.38745880126953
 },
 {
  "State": "آذربایجان غربی",
  "City": "شاهین دژ",
  "latitude(φ)": "36° 40' 45.174\" N",
  "longitude(λ)": "46° 33' 59.270\" E",
  "lat": 36.67921447753906,
  "long": 46.566463470458984
 },
 {
  "State": "آذربایجان غربی",
  "City": "شوط",
  "latitude(φ)": "39° 13' 5.250\" N",
  "longitude(λ)": "44° 46' 16.036\" E",
  "lat": 39.21812438964844,
  "long": 44.771121978759766
 },
 {
  "State": "آذربایجان غربی",
  "City": "فیرورق",
  "latitude(φ)": "38° 34' 40.019\" N",
  "longitude(λ)": "44° 50' 12.181\" E",
  "lat": 38.577781677246094,
  "long": 44.83671569824219
 },
 {
  "State": "آذربایجان غربی",
  "City": "قره ضیاءالدین",
  "latitude(φ)": "38° 53' 18.755\" N",
  "longitude(λ)": "45° 1' 30.630\" E",
  "lat": 38.88854217529297,
  "long": 45.02517318725586
 },
 {
  "State": "آذربایجان غربی",
  "City": "قطور",
  "latitude(φ)": "38° 28' 24.517\" N",
  "longitude(λ)": "44° 24' 20.516\" E",
  "lat": 38.47347640991211,
  "long": 44.40570068359375
 },
 {
  "State": "آذربایجان غربی",
  "City": "قوشچی",
  "latitude(φ)": "37° 59' 28.349\" N",
  "longitude(λ)": "45° 2' 16.357\" E",
  "lat": 37.991207122802734,
  "long": 45.03787612915039
 },
 {
  "State": "آذربایجان غربی",
  "City": "كشاورز",
  "latitude(φ)": "36° 50' 5.089\" N",
  "longitude(λ)": "46° 21' 30.362\" E",
  "lat": 36.834747314453125,
  "long": 46.35843276977539
 },
 {
  "State": "آذربایجان غربی",
  "City": "گردكشانه",
  "latitude(φ)": "36° 48' 42.808\" N",
  "longitude(λ)": "45° 16' 26.177\" E",
  "lat": 36.8118896484375,
  "long": 45.2739372253418
 },
 {
  "State": "آذربایجان غربی",
  "City": "ماكو",
  "latitude(φ)": "39° 17' 31.744\" N",
  "longitude(λ)": "44° 29' 32.770\" E",
  "lat": 39.292152404785156,
  "long": 44.492435455322266
 },
 {
  "State": "آذربایجان غربی",
  "City": "محمدیار",
  "latitude(φ)": "36° 58' 53.036\" N",
  "longitude(λ)": "45° 31' 19.708\" E",
  "lat": 36.98139953613281,
  "long": 45.52214050292969
 },
 {
  "State": "آذربایجان غربی",
  "City": "محمودآباد",
  "latitude(φ)": "36° 42' 42.754\" N",
  "longitude(λ)": "46° 31' 8.432\" E",
  "lat": 36.711875915527344,
  "long": 46.51900863647461
 },
 {
  "State": "آذربایجان غربی",
  "City": "مهاباد ",
  "latitude(φ)": "36° 46' 12.796\" N",
  "longitude(λ)": "45° 43' 42.287\" E",
  "lat": 36.77022171020508,
  "long": 45.72841262817383
 },
 {
  "State": "آذربایجان غربی",
  "City": "میاندوآب",
  "latitude(φ)": "36° 57' 53.860\" N",
  "longitude(λ)": "46° 6' 21.416\" E",
  "lat": 36.964962005615234,
  "long": 46.10594940185547
 },
 {
  "State": "آذربایجان غربی",
  "City": "میرآباد",
  "latitude(φ)": "36° 24' 11.095\" N",
  "longitude(λ)": "45° 22' 29.518\" E",
  "lat": 36.40308380126953,
  "long": 45.3748664855957
 },
 {
  "State": "آذربایجان غربی",
  "City": "نالوس",
  "latitude(φ)": "36° 59' 4.225\" N",
  "longitude(λ)": "45° 8' 35.308\" E",
  "lat": 36.9845085144043,
  "long": 45.14314270019531
 },
 {
  "State": "آذربایجان غربی",
  "City": "نقده",
  "latitude(φ)": "36° 57' 12.179\" N",
  "longitude(λ)": "45° 23' 20.054\" E",
  "lat": 36.95338439941406,
  "long": 45.3889045715332
 },
 {
  "State": "آذربایجان غربی",
  "City": "نوشین",
  "latitude(φ)": "37° 44' 3.606\" N",
  "longitude(λ)": "45° 3' 8.255\" E",
  "lat": 37.734336853027344,
  "long": 45.05229187011719
 },
 {
  "State": "بوشهر",
  "City": "امام حسن",
  "latitude(φ)": "29° 50' 22.758\" N",
  "longitude(λ)": "50° 15' 49.990\" E",
  "lat": 29.83965492248535,
  "long": 50.263885498046875
 },
 {
  "State": "بوشهر",
  "City": "انارستان",
  "latitude(φ)": "28° 1' 57.176\" N",
  "longitude(λ)": "52° 3' 59.281\" E",
  "lat": 28.032548904418945,
  "long": 52.06646728515625
 },
 {
  "State": "بوشهر",
  "City": "اهرم",
  "latitude(φ)": "28° 53' 3.206\" N",
  "longitude(λ)": "51° 16' 43.295\" E",
  "lat": 28.88422393798828,
  "long": 51.27869415283203
 },
 {
  "State": "بوشهر",
  "City": "آبپخش",
  "latitude(φ)": "29° 21' 13.633\" N",
  "longitude(λ)": "51° 3' 52.636\" E",
  "lat": 29.35378646850586,
  "long": 51.06462097167969
 },
 {
  "State": "بوشهر",
  "City": "آبدان",
  "latitude(φ)": "28° 4' 26.141\" N",
  "longitude(λ)": "51° 46' 14.329\" E",
  "lat": 28.073928833007812,
  "long": 51.77064514160156
 },
 {
  "State": "بوشهر",
  "City": "برازجان",
  "latitude(φ)": "29° 16' 14.563\" N",
  "longitude(λ)": "51° 13' 0.156\" E",
  "lat": 29.27071189880371,
  "long": 51.21670913696289
 },
 {
  "State": "بوشهر",
  "City": "بردخون",
  "latitude(φ)": "28° 3' 49.867\" N",
  "longitude(λ)": "51° 28' 40.217\" E",
  "lat": 28.063852310180664,
  "long": 51.47783660888672
 },
 {
  "State": "بوشهر",
  "City": "بردستان",
  "latitude(φ)": "27° 52' 17.335\" N",
  "longitude(λ)": "51° 57' 34.722\" E",
  "lat": 27.871482849121094,
  "long": 51.95964431762695
 },
 {
  "State": "بوشهر",
  "City": "بندردیر",
  "latitude(φ)": "27° 50' 20.616\" N",
  "longitude(λ)": "51° 56' 6.040\" E",
  "lat": 27.839059829711914,
  "long": 51.93501281738281
 },
 {
  "State": "بوشهر",
  "City": "بندردیلم",
  "latitude(φ)": "30° 3' 8.219\" N",
  "longitude(λ)": "50° 9' 47.480\" E",
  "lat": 30.052282333374023,
  "long": 50.16318893432617
 },
 {
  "State": "بوشهر",
  "City": "بندرریگ",
  "latitude(φ)": "29° 29' 16.462\" N",
  "longitude(λ)": "50° 37' 35.317\" E",
  "lat": 29.487905502319336,
  "long": 50.6264762878418
 },
 {
  "State": "بوشهر",
  "City": "بندركنگان",
  "latitude(φ)": "27° 50' 15.943\" N",
  "longitude(λ)": "52° 3' 42.466\" E",
  "lat": 27.8377628326416,
  "long": 52.06179428100586
 },
 {
  "State": "بوشهر",
  "City": "بندرگناوه",
  "latitude(φ)": "29° 34' 25.154\" N",
  "longitude(λ)": "50° 31' 6.751\" E",
  "lat": 29.573654174804688,
  "long": 50.5185432434082
 },
 {
  "State": "بوشهر",
  "City": "بنك",
  "latitude(φ)": "27° 52' 18.077\" N",
  "longitude(λ)": "52° 1' 38.636\" E",
  "lat": 27.871688842773438,
  "long": 52.02739715576172
 },
 {
  "State": "بوشهر",
  "City": "بوشهر",
  "latitude(φ)": "28° 55' 17.134\" N",
  "longitude(λ)": "50° 50' 15.616\" E",
  "lat": 28.92142677307129,
  "long": 50.837669372558594
 },
 {
  "State": "بوشهر",
  "City": "تنگ ارم",
  "latitude(φ)": "29° 9' 13.284\" N",
  "longitude(λ)": "51° 31' 38.712\" E",
  "lat": 29.153690338134766,
  "long": 51.52742004394531
 },
 {
  "State": "بوشهر",
  "City": "جم",
  "latitude(φ)": "27° 49' 27.667\" N",
  "longitude(λ)": "52° 20' 27.420\" E",
  "lat": 27.824352264404297,
  "long": 52.34095001220703
 },
 {
  "State": "بوشهر",
  "City": "چغادك",
  "latitude(φ)": "28° 59' 15.259\" N",
  "longitude(λ)": "51° 1' 30.058\" E",
  "lat": 28.987571716308594,
  "long": 51.02501678466797
 },
 {
  "State": "بوشهر",
  "City": "خارك",
  "latitude(φ)": "29° 14' 16.991\" N",
  "longitude(λ)": "50° 19' 9.502\" E",
  "lat": 29.238052368164062,
  "long": 50.319305419921875
 },
 {
  "State": "بوشهر",
  "City": "خورموج",
  "latitude(φ)": "28° 37' 37.855\" N",
  "longitude(λ)": "51° 22' 57.083\" E",
  "lat": 28.627182006835938,
  "long": 51.38252258300781
 },
 {
  "State": "بوشهر",
  "City": "دالكی",
  "latitude(φ)": "29° 25' 45.268\" N",
  "longitude(λ)": "51° 17' 28.133\" E",
  "lat": 29.429241180419922,
  "long": 51.2911491394043
 },
 {
  "State": "بوشهر",
  "City": "دلوار",
  "latitude(φ)": "28° 44' 45.582\" N",
  "longitude(λ)": "51° 4' 12.655\" E",
  "lat": 28.745994567871094,
  "long": 51.07018280029297
 },
 {
  "State": "بوشهر",
  "City": "ریز",
  "latitude(φ)": "28° 3' 20.074\" N",
  "longitude(λ)": "52° 4' 37.488\" E",
  "lat": 28.05557632446289,
  "long": 52.07707977294922
 },
 {
  "State": "بوشهر",
  "City": "سعدآباد",
  "latitude(φ)": "29° 23' 3.106\" N",
  "longitude(λ)": "51° 6' 59.908\" E",
  "lat": 29.38419532775879,
  "long": 51.116641998291016
 },
 {
  "State": "بوشهر",
  "City": "سیراف",
  "latitude(φ)": "27° 40' 5.423\" N",
  "longitude(λ)": "52° 20' 19.860\" E",
  "lat": 27.66817283630371,
  "long": 52.33884811401367
 },
 {
  "State": "بوشهر",
  "City": "شبانكاره",
  "latitude(φ)": "29° 28' 21.158\" N",
  "longitude(λ)": "50° 59' 38.627\" E",
  "lat": 29.472543716430664,
  "long": 50.99406433105469
 },
 {
  "State": "بوشهر",
  "City": "شنبه",
  "latitude(φ)": "28° 23' 41.932\" N",
  "longitude(λ)": "51° 45' 50.515\" E",
  "lat": 28.394981384277344,
  "long": 51.76403045654297
 },
 {
  "State": "بوشهر",
  "City": "عسلویه",
  "latitude(φ)": "27° 28' 32.740\" N",
  "longitude(λ)": "52° 36' 29.189\" E",
  "lat": 27.47576141357422,
  "long": 52.60810852050781
 },
 {
  "State": "بوشهر",
  "City": "كاكی",
  "latitude(φ)": "28° 20' 24.756\" N",
  "longitude(λ)": "51° 31' 21.648\" E",
  "lat": 28.3402099609375,
  "long": 51.52267837524414
 },
 {
  "State": "بوشهر",
  "City": "كلمه",
  "latitude(φ)": "28° 56' 36.665\" N",
  "longitude(λ)": "51° 27' 33.595\" E",
  "lat": 28.943517684936523,
  "long": 51.45933151245117
 },
 {
  "State": "بوشهر",
  "City": "نخل تقی",
  "latitude(φ)": "27° 29' 49.254\" N",
  "longitude(λ)": "52° 35' 2.360\" E",
  "lat": 27.49701499938965,
  "long": 52.583988189697266
 },
 {
  "State": "بوشهر",
  "City": "وحدتیه",
  "lat": 29.48295783996582,
  "long": 51.23637771606445
 },
 {
  "State": "تهران",
  "City": "ارجمند",
  "lat": 35.81401824951172,
  "long": 52.513824462890625
 },
 {
  "State": "تهران",
  "City": "اسلامشهر",
  "lat": 35.50104522705078,
  "long": 51.225547790527344
 },
 {
  "State": "تهران",
  "City": "اندیشه",
  "lat": 35.68739318847656,
  "long": 51.02239227294922
 },
 {
  "State": "تهران",
  "City": "آبسرد",
  "lat": 35.621707916259766,
  "long": 52.15012741088867
 },
 {
  "State": "تهران",
  "City": "آبعلی",
  "lat": 35.75962448120117,
  "long": 51.96295928955078
 },
 {
  "State": "تهران",
  "City": "باغستان",
  "lat": 35.634552001953125,
  "long": 51.13315200805664
 },
 {
  "State": "تهران",
  "City": "باقرشهر",
  "lat": 35.5262451171875,
  "long": 51.40306091308594
 },
 {
  "State": "تهران",
  "City": "بومهن",
  "lat": 35.727848052978516,
  "long": 51.868831634521484
 },
 {
  "State": "تهران",
  "City": "پاكدشت",
  "lat": 35.47431182861328,
  "long": 51.67570114135742
 },
 {
  "State": "تهران",
  "City": "پردیس",
  "lat": 35.742347717285156,
  "long": 51.821407318115234
 },
 {
  "State": "تهران",
  "City": "پیشوا",
  "lat": 35.3055534362793,
  "long": 51.72243881225586
 },
 {
  "State": "تهران",
  "City": "تجریش",
  "lat": 35.81037902832031,
  "long": 51.464759826660156
 },
 {
  "State": "تهران",
  "City": "تهران",
  "lat": 35.70290756225586,
  "long": 51.34975814819336
 },
 {
  "State": "تهران",
  "City": "جوادآباد",
  "lat": 35.21086120605469,
  "long": 51.67318344116211
 },
 {
  "State": "تهران",
  "City": "چهاردانگه",
  "lat": 35.59637451171875,
  "long": 51.3045654296875
 },
 {
  "State": "تهران",
  "City": "حسن آباد ",
  "lat": 35.36765670776367,
  "long": 51.24298858642578
 },
 {
  "State": "تهران",
  "City": "دماوند",
  "lat": 35.69395446777344,
  "long": 52.047218322753906
 },
 {
  "State": "تهران",
  "City": "رباط كریم",
  "lat": 35.48320007324219,
  "long": 51.07991409301758
 },
 {
  "State": "تهران",
  "City": "رودهن",
  "lat": 35.73760986328125,
  "long": 51.910423278808594
 },
 {
  "State": "تهران",
  "City": "ری",
  "lat": 35.60319137573242,
  "long": 51.4387092590332
 },
 {
  "State": "تهران",
  "City": "شاهدشهر",
  "lat": 35.571861267089844,
  "long": 51.08738327026367
 },
 {
  "State": "تهران",
  "City": "شریف آباد",
  "lat": 35.422340393066406,
  "long": 51.785919189453125
 },
 {
  "State": "تهران",
  "City": "شهریار",
  "lat": 35.63301467895508,
  "long": 51.0597038269043
 },
 {
  "State": "تهران",
  "City": "صالح آباد ",
  "lat": 35.504940032958984,
  "long": 51.18913650512695
 },
 {
  "State": "تهران",
  "City": "صباشهر",
  "lat": 35.578758239746094,
  "long": 51.11426544189453
 },
 {
  "State": "تهران",
  "City": "صفادشت",
  "lat": 35.69135284423828,
  "long": 50.840694427490234
 },
 {
  "State": "تهران",
  "City": "فردوسیه",
  "lat": 35.6019287109375,
  "long": 51.063209533691406
 },
 {
  "State": "تهران",
  "City": "فرون آباد",
  "lat": 35.505271911621094,
  "long": 51.62708282470703
 },
 {
  "State": "تهران",
  "City": "فشم",
  "lat": 35.9017333984375,
  "long": 51.51983642578125
 },
 {
  "State": "تهران",
  "City": "فیروزكوه",
  "lat": 35.75455856323242,
  "long": 52.77387237548828
 },
 {
  "State": "تهران",
  "City": "قدس",
  "lat": 35.71248245239258,
  "long": 51.112892150878906
 },
 {
  "State": "تهران",
  "City": "قرچك",
  "lat": 35.415794372558594,
  "long": 51.586673736572266
 },
 {
  "State": "تهران",
  "City": "كهریزك",
  "lat": 35.5238151550293,
  "long": 51.3551025390625
 },
 {
  "State": "تهران",
  "City": "گیلان",
  "latitude(φ)": "35° 33' 22.136\" N",
  "longitude(λ)": "52° 9' 46.339\" E",
  "lat": 35.556148529052734,
  "long": 52.162872314453125
 },
 {
  "State": "تهران",
  "City": "گلستان",
  "lat": 35.51601028442383,
  "long": 51.16218948364258
 },
 {
  "State": "تهران",
  "City": "لواسان",
  "lat": 35.819400787353516,
  "long": 51.637290954589844
 },
 {
  "State": "تهران",
  "City": "ملارد",
  "lat": 35.654701232910156,
  "long": 50.97917556762695
 },
 {
  "State": "تهران",
  "City": "نسیم شهر",
  "lat": 35.55868911743164,
  "long": 51.169490814208984
 },
 {
  "State": "تهران",
  "City": "نصیرآباد",
  "lat": 35.49018859863281,
  "long": 51.14104461669922
 },
 {
  "State": "تهران",
  "City": "وحیدیه",
  "lat": 35.605220794677734,
  "long": 51.02610397338867
 },
 {
  "State": "تهران",
  "City": "ورامین",
  "lat": 35.32939529418945,
  "long": 51.63468551635742
 },
 {
  "State": "چهارمحال وبختیاری",
  "City": "اردل",
  "lat": 31.997865676879883,
  "long": 50.66145324707031
 },
 {
  "State": "چهارمحال وبختیاری",
  "City": "آلونی",
  "lat": 31.552204132080078,
  "long": 51.05701446533203
 },
 {
  "State": "چهارمحال وبختیاری",
  "City": "باباحیدر",

  "lat": 32.32894515991211,
  "long": 50.468875885009766
 },
 {
  "State": "چهارمحال وبختیاری",
  "City": "بروجن",
  "lat": 31.966794967651367,
  "long": 51.289424896240234
 },
 {
  "State": "چهارمحال وبختیاری",
  "City": "بلداجی",
  "lat": 31.937042236328125,
  "long": 51.0526123046875
 },
 {
  "State": "چهارمحال وبختیاری",
  "City": "بن",
  "latitude(φ)": "32° 32' 34.012\" N",
  "longitude(λ)": "50° 44' 46.345\" E",
  "lat": 32.542781829833984,
  "long": 50.74620819091797
 },
 {
  "State": "چهارمحال وبختیاری",
  "City": "جونقان",
  "latitude(φ)": "32° 8' 34.642\" N",
  "longitude(λ)": "50° 41' 11.753\" E",
  "lat": 32.1429557800293,
  "long": 50.68659973144531
 },
 {
  "State": "چهارمحال وبختیاری",
  "City": "چلگرد",
  "latitude(φ)": "32° 28' 2.194\" N",
  "longitude(λ)": "50° 7' 48.155\" E",
  "lat": 32.46727752685547,
  "long": 50.130043029785156
 },
 {
  "State": "چهارمحال وبختیاری",
  "City": "سامان",
  "latitude(φ)": "32° 27' 5.674\" N",
  "longitude(λ)": "50° 54' 37.649\" E",
  "lat": 32.451576232910156,
  "long": 50.910457611083984
 },
 {
  "State": "چهارمحال وبختیاری",
  "City": "سفیددشت",
  "latitude(φ)": "32° 7' 47.179\" N",
  "longitude(λ)": "51° 10' 58.361\" E",
  "lat": 32.1297721862793,
  "long": 51.18287658691406
 },
 {
  "State": "چهارمحال وبختیاری",
  "City": "سودجان",
  "latitude(φ)": "32° 31' 16.057\" N",
  "longitude(λ)": "50° 24' 1.285\" E",
  "lat": 32.52112579345703,
  "long": 50.40035629272461
 },
 {
  "State": "چهارمحال وبختیاری",
  "City": "سورشجان",
  "latitude(φ)": "32° 18' 56.930\" N",
  "longitude(λ)": "50° 40' 43.864\" E",
  "lat": 32.31581497192383,
  "long": 50.67885208129883
 },
 {
  "State": "چهارمحال وبختیاری",
  "City": "شلمزار",
  "latitude(φ)": "32° 2' 47.836\" N",
  "longitude(λ)": "50° 49' 1.366\" E",
  "lat": 32.0466194152832,
  "long": 50.817047119140625
 },
 {
  "State": "چهارمحال وبختیاری",
  "City": "شهركرد",
  "latitude(φ)": "32° 18' 58.255\" N",
  "longitude(λ)": "50° 51' 29.531\" E",
  "lat": 32.31618118286133,
  "long": 50.85820388793945
 },
 {
  "State": "چهارمحال وبختیاری",
  "City": "طاقانك",
  "latitude(φ)": "32° 13' 23.250\" N",
  "longitude(λ)": "50° 50' 12.980\" E",
  "lat": 32.22312545776367,
  "long": 50.83694076538086
 },
 {
  "State": "چهارمحال وبختیاری",
  "City": "فارسان",
  "latitude(φ)": "32° 15' 26.276\" N",
  "longitude(λ)": "50° 33' 56.434\" E",
  "lat": 32.25729751586914,
  "long": 50.565677642822266
 },
 {
  "State": "چهارمحال وبختیاری",
  "City": "فرادنبه",
  "latitude(φ)": "32° 0' 30.859\" N",
  "longitude(λ)": "51° 12' 53.089\" E",
  "lat": 32.00857162475586,
  "long": 51.21474838256836
 },
 {
  "State": "چهارمحال وبختیاری",
  "City": "فرخ شهر",
  "latitude(φ)": "32° 16' 26.342\" N",
  "longitude(λ)": "50° 58' 22.613\" E",
  "lat": 32.273983001708984,
  "long": 50.97294616699219
 },
 {
  "State": "چهارمحال وبختیاری",
  "City": "كیان",
  "latitude(φ)": "32° 16' 59.927\" N",
  "longitude(λ)": "50° 53' 21.026\" E",
  "lat": 32.2833137512207,
  "long": 50.88917541503906
 },
 {
  "State": "چهارمحال وبختیاری",
  "City": "گندمان",
  "latitude(φ)": "31° 51' 46.984\" N",
  "longitude(λ)": "51° 9' 12.182\" E",
  "lat": 31.86305046081543,
  "long": 51.153385162353516
 },
 {
  "State": "چهارمحال وبختیاری",
  "City": "گهرو",
  "latitude(φ)": "32° 0' 5.497\" N",
  "longitude(λ)": "50° 53' 10.630\" E",
  "lat": 32.00152587890625,
  "long": 50.886287689208984
 },
 {
  "State": "چهارمحال وبختیاری",
  "City": "لردگان",
  "latitude(φ)": "31° 30' 38.945\" N",
  "longitude(λ)": "50° 49' 48.328\" E",
  "lat": 31.510818481445312,
  "long": 50.8300895690918
 },
 {
  "State": "چهارمحال وبختیاری",
  "City": "مال خلیفه",
  "latitude(φ)": "31° 17' 23.492\" N",
  "longitude(λ)": "51° 15' 55.469\" E",
  "lat": 31.289859771728516,
  "long": 51.26540756225586
 },
 {
  "State": "چهارمحال وبختیاری",
  "City": "ناغان",
  "latitude(φ)": "31° 56' 3.559\" N",
  "longitude(λ)": "50° 43' 50.171\" E",
  "lat": 31.934322357177734,
  "long": 50.7306022644043
 },
 {
  "State": "چهارمحال وبختیاری",
  "City": "نافچ",
  "latitude(φ)": "32° 25' 26.746\" N",
  "longitude(λ)": "50° 47' 18.370\" E",
  "lat": 32.424095153808594,
  "long": 50.78843688964844
 },
 {
  "State": "چهارمحال وبختیاری",
  "City": "نقنه",
  "latitude(φ)": "31° 55' 56.413\" N",
  "longitude(λ)": "51° 19' 43.838\" E",
  "lat": 31.932336807250977,
  "long": 51.32884216308594
 },
 {
  "State": "چهارمحال وبختیاری",
  "City": "هفشجان",
  "latitude(φ)": "32° 13' 32.142\" N",
  "longitude(λ)": "50° 47' 40.679\" E",
  "lat": 32.22559356689453,
  "long": 50.79463195800781
 },
 {
  "State": "خراسان جنوبی",
  "City": "ارسك",
  "latitude(φ)": "33° 42' 13.205\" N",
  "longitude(λ)": "57° 22' 18.552\" E",
  "lat": 33.70366668701172,
  "long": 57.37181854248047
 },
 {
  "State": "خراسان جنوبی",
  "City": "اسدیه",
  "latitude(φ)": "32° 54' 57.341\" N",
  "longitude(λ)": "60° 1' 28.164\" E",
  "lat": 32.91592788696289,
  "long": 60.02449035644531
 },
 {
  "State": "خراسان جنوبی",
  "City": "اسفدن",
  "latitude(φ)": "33° 38' 42.968\" N",
  "longitude(λ)": "59° 46' 43.622\" E",
  "lat": 33.645267486572266,
  "long": 59.778785705566406
 },
 {
  "State": "خراسان جنوبی",
  "City": "اسلامیه",
  "latitude(φ)": "34° 2' 32.320\" N",
  "longitude(λ)": "58° 13' 12.029\" E",
  "lat": 34.04231262207031,
  "long": 58.220008850097656
 },
 {
  "State": "خراسان جنوبی",
  "City": "آرین شهر",
  "latitude(φ)": "33° 19' 51.956\" N",
  "longitude(λ)": "59° 13' 58.793\" E",
  "lat": 33.33110046386719,
  "long": 59.23299789428711
 },
 {
  "State": "خراسان جنوبی",
  "City": "آیسك",
  "latitude(φ)": "33° 53' 11.940\" N",
  "longitude(λ)": "58° 22' 53.746\" E",
  "lat": 33.88665008544922,
  "long": 58.381595611572266
 },
 {
  "State": "خراسان جنوبی",
  "City": "بشرویه",
  "latitude(φ)": "33° 51' 10.134\" N",
  "longitude(λ)": "57° 25' 20.798\" E",
  "lat": 33.852813720703125,
  "long": 57.42244338989258
 },
 {
  "State": "خراسان جنوبی",
  "City": "بیرجند",
  "latitude(φ)": "32° 51' 24.959\" N",
  "longitude(λ)": "59° 13' 10.376\" E",
  "lat": 32.85693359375,
  "long": 59.219547271728516
 },
 {
  "State": "خراسان جنوبی",
  "City": "حاجی آباد",
  "latitude(φ)": "33° 36' 16.826\" N",
  "longitude(λ)": "59° 59' 51.122\" E",
  "lat": 33.60467529296875,
  "long": 59.997535705566406
 },
 {
  "State": "خراسان جنوبی",
  "City": "خضری دشت بیاض",
  "latitude(φ)": "34° 1' 22.613\" N",
  "longitude(λ)": "58° 48' 23.544\" E",
  "lat": 34.02294921875,
  "long": 58.806541442871094
 },
 {
  "State": "خراسان جنوبی",
  "City": "خوسف",
  "latitude(φ)": "32° 46' 45.016\" N",
  "longitude(λ)": "58° 53' 9.110\" E",
  "lat": 32.779170989990234,
  "long": 58.8858642578125
 },
 {
  "State": "خراسان جنوبی",
  "City": "زهان",
  "latitude(φ)": "33° 25' 11.064\" N",
  "longitude(λ)": "59° 48' 39.200\" E",
  "lat": 33.41973876953125,
  "long": 59.810890197753906
 },
 {
  "State": "خراسان جنوبی",
  "City": "سرایان",
  "latitude(φ)": "33° 51' 37.346\" N",
  "longitude(λ)": "58° 31' 20.356\" E",
  "lat": 33.860374450683594,
  "long": 58.52231979370117
 },
 {
  "State": "خراسان جنوبی",
  "City": "سربیشه",
  "latitude(φ)": "32° 34' 34.892\" N",
  "longitude(λ)": "59° 47' 54.046\" E",
  "lat": 32.576358795166016,
  "long": 59.79834747314453
 },
 {
  "State": "خراسان جنوبی",
  "City": "سه قلعه",
  "latitude(φ)": "33° 39' 59.288\" N",
  "longitude(λ)": "58° 23' 57.854\" E",
  "lat": 33.66646957397461,
  "long": 58.3994026184082
 },
 {
  "State": "خراسان جنوبی",
  "City": "شوسف",
  "latitude(φ)": "31° 48' 12.013\" N",
  "longitude(λ)": "60° 0' 31.936\" E",
  "lat": 31.80333709716797,
  "long": 60.00886917114258
 },
 {
  "State": "خراسان جنوبی",
  "City": "طبس مسینا",
  "latitude(φ)": "32° 48' 3.902\" N",
  "longitude(λ)": "60° 13' 22.573\" E",
  "lat": 32.801082611083984,
  "long": 60.222938537597656
 },
 {
  "State": "خراسان جنوبی",
  "City": "فردوس",
  "latitude(φ)": "34° 1' 5.077\" N",
  "longitude(λ)": "58° 10' 20.597\" E",
  "lat": 34.0180778503418,
  "long": 58.172386169433594
 },
 {
  "State": "خراسان جنوبی",
  "City": "قائن",
  "latitude(φ)": "33° 43' 46.009\" N",
  "longitude(λ)": "59° 10' 51.254\" E",
  "lat": 33.72944641113281,
  "long": 59.180904388427734
 },
 {
  "State": "خراسان جنوبی",
  "City": "قهستان",
  "latitude(φ)": "33° 8' 46.788\" N",
  "longitude(λ)": "59° 42' 56.840\" E",
  "lat": 33.146331787109375,
  "long": 59.715789794921875
 },
 {
  "State": "خراسان جنوبی",
  "City": "گزیك",
  "latitude(φ)": "33° 0' 1.080\" N",
  "longitude(λ)": "60° 13' 21.216\" E",
  "lat": 33.000301361083984,
  "long": 60.22256088256836
 },
 {
  "State": "خراسان جنوبی",
  "City": "محمد شهر",
  "latitude(φ)": "32° 52' 29.946\" N",
  "longitude(λ)": "59° 1' 3.850\" E",
  "lat": 32.87498474121094,
  "long": 59.01773452758789
 },
 {
  "State": "خراسان جنوبی",
  "City": "مود",
  "latitude(φ)": "32° 42' 19.181\" N",
  "longitude(λ)": "59° 31' 26.947\" E",
  "lat": 32.70532989501953,
  "long": 59.52415084838867
 },
 {
  "State": "خراسان جنوبی",
  "City": "نهبندان",
  "latitude(φ)": "31° 32' 26.830\" N",
  "longitude(λ)": "60° 2' 16.102\" E",
  "lat": 31.540786743164062,
  "long": 60.03780746459961
 },
 {
  "State": "خراسان جنوبی",
  "City": "نیمبلوك",
  "latitude(φ)": "33° 54' 3.964\" N",
  "longitude(λ)": "58° 55' 45.959\" E",
  "lat": 33.901100158691406,
  "long": 58.9294319152832
 },
 {
  "State": "خراسان رضوی",
  "City": "احمدآبادصولت",
  "latitude(φ)": "35° 6' 55.944\" N",
  "longitude(λ)": "60° 41' 21.768\" E",
  "lat": 35.11553955078125,
  "long": 60.68938064575195
 },
 {
  "State": "خراسان رضوی",
  "City": "انابد",
  "latitude(φ)": "35° 15' 4.043\" N",
  "longitude(λ)": "57° 48' 35.496\" E",
  "lat": 35.251121520996094,
  "long": 57.80986022949219
 },
 {
  "State": "خراسان رضوی",
  "City": "باجگیران",
  "latitude(φ)": "37° 37' 26.814\" N",
  "longitude(λ)": "58° 24' 55.051\" E",
  "lat": 37.624114990234375,
  "long": 58.41529083251953
 },
 {
  "State": "خراسان رضوی",
  "City": "باخرز",
  "latitude(φ)": "34° 58' 59.844\" N",
  "longitude(λ)": "60° 19' 7.522\" E",
  "lat": 34.98329162597656,
  "long": 60.318756103515625
 },
 {
  "State": "خراسان رضوی",
  "City": "بار",
  "latitude(φ)": "36° 29' 19.954\" N",
  "longitude(λ)": "58° 43' 8.962\" E",
  "lat": 36.48887634277344,
  "long": 58.719154357910156
 },
 {
  "State": "خراسان رضوی",
  "City": "بایگ",
  "latitude(φ)": "35° 22' 30.490\" N",
  "longitude(λ)": "59° 2' 22.942\" E",
  "lat": 35.37513732910156,
  "long": 59.03970718383789
 },
 {
  "State": "خراسان رضوی",
  "City": "بجستان",
  "latitude(φ)": "34° 30' 55.750\" N",
  "longitude(λ)": "58° 10' 54.696\" E",
  "lat": 34.51548767089844,
  "long": 58.181861877441406
 },
 {
  "State": "خراسان رضوی",
  "City": "بردسكن",
  "latitude(φ)": "35° 15' 37.004\" N",
  "longitude(λ)": "57° 58' 19.376\" E",
  "lat": 35.26028060913086,
  "long": 57.972049713134766
 },
 {
  "State": "خراسان رضوی",
  "City": "بیدخت",
  "latitude(φ)": "34° 20' 46.648\" N",
  "longitude(λ)": "58° 45' 26.402\" E",
  "lat": 34.346290588378906,
  "long": 58.7573356628418
 },
 {
  "State": "خراسان رضوی",
  "City": "تایباد",
  "latitude(φ)": "34° 44' 23.420\" N",
  "longitude(λ)": "60° 46' 37.700\" E",
  "lat": 34.739837646484375,
  "long": 60.777137756347656
 },
 {
  "State": "خراسان رضوی",
  "City": "تربت جام",
  "latitude(φ)": "35° 14' 29.926\" N",
  "longitude(λ)": "60° 37' 17.825\" E",
  "lat": 35.24164581298828,
  "long": 60.62161636352539
 },
 {
  "State": "خراسان رضوی",
  "City": "تربت حیدریه",
  "latitude(φ)": "35° 16' 42.449\" N",
  "longitude(λ)": "59° 12' 46.868\" E",
  "lat": 35.27845764160156,
  "long": 59.21302032470703
 },
 {
  "State": "خراسان رضوی",
  "City": "جغتای",
  "latitude(φ)": "36° 38' 22.744\" N",
  "longitude(λ)": "57° 4' 37.938\" E",
  "lat": 36.639652252197266,
  "long": 57.077205657958984
 },
 {
  "State": "خراسان رضوی",
  "City": "جنگل",
  "latitude(φ)": "34° 42' 5.897\" N",
  "longitude(λ)": "59° 13' 24.485\" E",
  "lat": 34.701637268066406,
  "long": 59.22346878051758
 },
 {
  "State": "خراسان رضوی",
  "City": "چاپشلو",
  "latitude(φ)": "37° 20' 50.723\" N",
  "longitude(λ)": "59° 4' 37.862\" E",
  "lat": 37.3474235534668,
  "long": 59.07718276977539
 },
 {
  "State": "خراسان رضوی",
  "City": "چكنه",
  "latitude(φ)": "36° 49' 4.692\" N",
  "longitude(λ)": "58° 30' 15.113\" E",
  "lat": 36.817970275878906,
  "long": 58.50419616699219
 },
 {
  "State": "خراسان رضوی",
  "City": "چناران",
  "latitude(φ)": "36° 38' 32.212\" N",
  "longitude(λ)": "59° 7' 15.013\" E",
  "lat": 36.64228057861328,
  "long": 59.1208381652832
 },
 {
  "State": "خراسان رضوی",
  "City": "خرو",
  "latitude(φ)": "36° 8' 11.360\" N",
  "longitude(λ)": "59° 1' 37.445\" E",
  "lat": 36.13648986816406,
  "long": 59.027069091796875
 },
 {
  "State": "خراسان رضوی",
  "City": "خلیل آباد",
  "latitude(φ)": "35° 14' 41.950\" N",
  "longitude(λ)": "58° 17' 6.590\" E",
  "lat": 35.24498748779297,
  "long": 58.28516387939453
 },
 {
  "State": "خراسان رضوی",
  "City": "خواف",
  "latitude(φ)": "34° 33' 46.314\" N",
  "longitude(λ)": "60° 8' 39.458\" E",
  "lat": 34.5628662109375,
  "long": 60.14429473876953
 },
 {
  "State": "خراسان رضوی",
  "City": "داورزن",
  "latitude(φ)": "36° 21' 4.529\" N",
  "longitude(λ)": "56° 52' 40.948\" E",
  "lat": 36.35125732421875,
  "long": 56.8780403137207
 },
 {
  "State": "خراسان رضوی",
  "City": "درگز",
  "latitude(φ)": "37° 26' 41.107\" N",
  "longitude(λ)": "59° 6' 20.560\" E",
  "lat": 37.44475173950195,
  "long": 59.105712890625
 },
 {
  "State": "خراسان رضوی",
  "City": "درود",
  "latitude(φ)": "36° 8' 8.657\" N",
  "longitude(λ)": "59° 6' 44.528\" E",
  "lat": 36.135738372802734,
  "long": 59.112369537353516
 },
 {
  "State": "خراسان رضوی",
  "City": "دولت آباد ",
  "latitude(φ)": "35° 16' 55.499\" N",
  "longitude(λ)": "59° 31' 19.639\" E",
  "lat": 35.282081604003906,
  "long": 59.52212142944336
 },
 {
  "State": "خراسان رضوی",
  "City": "رباط سنگ",
  "latitude(φ)": "35° 32' 40.913\" N",
  "longitude(λ)": "59° 11' 39.044\" E",
  "lat": 35.54469680786133,
  "long": 59.19417953491211
 },
 {
  "State": "خراسان رضوی",
  "City": "رشتخوار",
  "latitude(φ)": "34° 58' 30.248\" N",
  "longitude(λ)": "59° 37' 22.966\" E",
  "lat": 34.975067138671875,
  "long": 59.623046875
 },
 {
  "State": "خراسان رضوی",
  "City": "رضویه",
  "latitude(φ)": "36° 12' 19.811\" N",
  "longitude(λ)": "59° 46' 11.467\" E",
  "lat": 36.205501556396484,
  "long": 59.76985168457031
 },
 {
  "State": "خراسان رضوی",
  "City": "روداب",
  "latitude(φ)": "36° 1' 14.927\" N",
  "longitude(λ)": "57° 18' 44.654\" E",
  "lat": 36.02081298828125,
  "long": 57.31240463256836
 },
 {
  "State": "خراسان رضوی",
  "City": "ریوش",
  "latitude(φ)": "35° 28' 35.486\" N",
  "longitude(λ)": "58° 27' 42.088\" E",
  "lat": 35.476524353027344,
  "long": 58.461692810058594
 },
 {
  "State": "خراسان رضوی",
  "City": "سبزوار",
  "latitude(φ)": "36° 12' 33.170\" N",
  "longitude(λ)": "57° 40' 56.356\" E",
  "lat": 36.20921325683594,
  "long": 57.68231964111328
 },
 {
  "State": "خراسان رضوی",
  "City": "سرخس",
  "latitude(φ)": "36° 32' 55.169\" N",
  "longitude(λ)": "61° 8' 54.967\" E",
  "lat": 36.54865646362305,
  "long": 61.14860153198242
 },
 {
  "State": "خراسان رضوی",
  "City": "سفیدسنگ",
  "latitude(φ)": "35° 39' 36.338\" N",
  "longitude(λ)": "60° 5' 35.992\" E",
  "lat": 35.66009521484375,
  "long": 60.09333038330078
 },
 {
  "State": "خراسان رضوی",
  "City": "سلامی",
  "latitude(φ)": "34° 44' 39.728\" N",
  "longitude(λ)": "59° 58' 35.296\" E",
  "lat": 34.74436950683594,
  "long": 59.976470947265625
 },
 {
  "State": "خراسان رضوی",
  "City": "سلطان آباد",
  "latitude(φ)": "36° 24' 10.073\" N",
  "longitude(λ)": "58° 2' 23.600\" E",
  "lat": 36.40279769897461,
  "long": 58.03989028930664
 },
 {
  "State": "خراسان رضوی",
  "City": "سنگان",
  "latitude(φ)": "34° 23' 51.990\" N",
  "longitude(λ)": "60° 15' 19.717\" E",
  "lat": 34.39777374267578,
  "long": 60.25547790527344
 },
 {
  "State": "خراسان رضوی",
  "City": "شادمهر",
  "latitude(φ)": "35° 10' 24.316\" N",
  "longitude(λ)": "59° 2' 16.667\" E",
  "lat": 35.17341995239258,
  "long": 59.0379638671875
 },
 {
  "State": "خراسان رضوی",
  "City": "شاندیز",
  "latitude(φ)": "36° 23' 42.774\" N",
  "longitude(λ)": "59° 17' 53.506\" E",
  "lat": 36.39521408081055,
  "long": 59.298194885253906
 },
 {
  "State": "خراسان رضوی",
  "City": "ششتمد",
  "latitude(φ)": "35° 57' 34.492\" N",
  "longitude(λ)": "57° 46' 12.806\" E",
  "lat": 35.95957946777344,
  "long": 57.770225524902344
 },
 {
  "State": "خراسان رضوی",
  "City": "شهرآباد",
  "latitude(φ)": "35° 8' 48.876\" N",
  "longitude(λ)": "57° 56' 5.543\" E",
  "lat": 35.14691162109375,
  "long": 57.934871673583984
 },
 {
  "State": "خراسان رضوی",
  "City": "شهرزو",
  "latitude(φ)": "36° 44' 45.726\" N",
  "longitude(λ)": "59° 55' 27.412\" E",
  "lat": 36.746036529541016,
  "long": 59.92428207397461
 },
 {
  "State": "خراسان رضوی",
  "City": "صالح آباد  ",
  "latitude(φ)": "35° 41' 16.768\" N",
  "longitude(λ)": "61° 5' 25.631\" E",
  "lat": 35.687992095947266,
  "long": 61.0904541015625
 },
 {
  "State": "خراسان رضوی",
  "City": "طرقبه",
  "latitude(φ)": "36° 18' 15.469\" N",
  "longitude(λ)": "59° 22' 34.781\" E",
  "lat": 36.304298400878906,
  "long": 59.37632751464844
 },
 {
  "State": "خراسان رضوی",
  "City": "عشق آباد",
  "latitude(φ)": "36° 2' 21.898\" N",
  "longitude(λ)": "58° 40' 59.545\" E",
  "lat": 36.0394172668457,
  "long": 58.68320846557617
 },
 {
  "State": "خراسان رضوی",
  "City": "فرهادگرد",
  "latitude(φ)": "35° 45' 6.577\" N",
  "longitude(λ)": "59° 43' 47.590\" E",
  "lat": 35.751827239990234,
  "long": 59.72988510131836
 },
 {
  "State": "خراسان رضوی",
  "City": "فریمان",
  "latitude(φ)": "35° 42' 14.512\" N",
  "longitude(λ)": "59° 50' 53.797\" E",
  "lat": 35.70403289794922,
  "long": 59.8482780456543
 },
 {
  "State": "خراسان رضوی",
  "City": "فیروزه",
  "latitude(φ)": "36° 17' 8.189\" N",
  "longitude(λ)": "58° 35' 20.472\" E",
  "lat": 36.285606384277344,
  "long": 58.589019775390625
 },
 {
  "State": "خراسان رضوی",
  "City": "فیض آباد",
  "latitude(φ)": "35° 0' 52.632\" N",
  "longitude(λ)": "58° 46' 30.450\" E",
  "lat": 35.01462173461914,
  "long": 58.775123596191406
 },
 {
  "State": "خراسان رضوی",
  "City": "قاسم آباد",
  "latitude(φ)": "34° 21' 20.171\" N",
  "longitude(λ)": "59° 51' 43.092\" E",
  "lat": 34.3556022644043,
  "long": 59.861968994140625
 },
 {
  "State": "خراسان رضوی",
  "City": "قدمگاه",
  "latitude(φ)": "36° 6' 21.218\" N",
  "longitude(λ)": "59° 3' 37.678\" E",
  "lat": 36.105892181396484,
  "long": 59.06046676635742
 },
 {
  "State": "خراسان رضوی",
  "City": "قلندرآباد",
  "latitude(φ)": "35° 35' 56.281\" N",
  "longitude(λ)": "59° 57' 3.751\" E",
  "lat": 35.598968505859375,
  "long": 59.95104217529297
 },
 {
  "State": "خراسان رضوی",
  "City": "قوچان",
  "latitude(φ)": "37° 6' 8.525\" N",
  "longitude(λ)": "58° 30' 39.139\" E",
  "lat": 37.10236740112305,
  "long": 58.51087188720703
 },
 {
  "State": "خراسان رضوی",
  "City": "كاخك",
  "latitude(φ)": "34° 8' 55.230\" N",
  "longitude(λ)": "58° 38' 40.243\" E",
  "lat": 34.14867401123047,
  "long": 58.64451217651367
 },
 {
  "State": "خراسان رضوی",
  "City": "كاریز",
  "latitude(φ)": "34° 48' 49.097\" N",
  "longitude(λ)": "60° 49' 31.379\" E",
  "lat": 34.813636779785156,
  "long": 60.825382232666016
 },
 {
  "State": "خراسان رضوی",
  "City": "كاشمر",
  "latitude(φ)": "35° 14' 33.936\" N",
  "longitude(λ)": "58° 27' 35.572\" E",
  "lat": 35.242759704589844,
  "long": 58.45988082885742
 },
 {
  "State": "خراسان رضوی",
  "City": "كدكن",
  "latitude(φ)": "35° 35' 8.999\" N",
  "longitude(λ)": "58° 52' 44.292\" E",
  "lat": 35.58583450317383,
  "long": 58.878971099853516
 },
 {
  "State": "خراسان رضوی",
  "City": "كلات",
  "latitude(φ)": "36° 59' 40.416\" N",
  "longitude(λ)": "59° 44' 59.572\" E",
  "lat": 36.99456024169922,
  "long": 59.749881744384766
 },
 {
  "State": "خراسان رضوی",
  "City": "كندر",
  "latitude(φ)": "35° 12' 44.849\" N",
  "longitude(λ)": "58° 9' 2.808\" E",
  "lat": 35.212459564208984,
  "long": 58.150779724121094
 },
 {
  "State": "خراسان رضوی",
  "City": "گلمكان",
  "latitude(φ)": "36° 28' 55.585\" N",
  "longitude(λ)": "59° 9' 34.178\" E",
  "lat": 36.48210525512695,
  "long": 59.15949249267578
 },
 {
  "State": "خراسان رضوی",
  "City": "گناباد",
  "latitude(φ)": "34° 21' 6.296\" N",
  "longitude(λ)": "58° 41' 8.560\" E",
  "lat": 34.351749420166016,
  "long": 58.68571090698242
 },
 {
  "State": "خراسان رضوی",
  "City": "لطف آباد",
  "latitude(φ)": "37° 30' 54.832\" N",
  "longitude(λ)": "59° 20' 5.035\" E",
  "lat": 37.51523208618164,
  "long": 59.33473205566406
 },
 {
  "State": "خراسان رضوی",
  "City": "مزدآوند",
  "latitude(φ)": "36° 9' 16.747\" N",
  "longitude(λ)": "60° 31' 39.464\" E",
  "lat": 36.1546516418457,
  "long": 60.52762985229492
 },
 {
  "State": "خراسان رضوی",
  "City": "مشهد",
  "latitude(φ)": "36° 18' 37.562\" N",
  "longitude(λ)": "59° 34' 32.419\" E",
  "lat": 36.31043243408203,
  "long": 59.5756721496582
 },
 {
  "State": "خراسان رضوی",
  "City": "مشهدریزه",
  "latitude(φ)": "34° 47' 42.677\" N",
  "longitude(λ)": "60° 30' 27.428\" E",
  "lat": 34.795188903808594,
  "long": 60.50761795043945
 },
 {
  "State": "خراسان رضوی",
  "City": "ملك آباد",
  "latitude(φ)": "35° 59' 47.753\" N",
  "longitude(λ)": "59° 35' 36.910\" E",
  "lat": 35.99659729003906,
  "long": 59.59358596801758
 },
 {
  "State": "خراسان رضوی",
  "City": "نشتیفان",
  "latitude(φ)": "34° 26' 3.700\" N",
  "longitude(λ)": "60° 10' 35.119\" E",
  "lat": 34.43436050415039,
  "long": 60.176422119140625
 },
 {
  "State": "خراسان رضوی",
  "City": "نصر آباد",
  "latitude(φ)": "35° 25' 5.070\" N",
  "longitude(λ)": "60° 18' 55.433\" E",
  "lat": 35.41807556152344,
  "long": 60.315399169921875
 },
 {
  "State": "خراسان رضوی",
  "City": "نقاب",
  "latitude(φ)": "36° 42' 30.766\" N",
  "longitude(λ)": "57° 24' 29.372\" E",
  "lat": 36.70854568481445,
  "long": 57.40815734863281
 },
 {
  "State": "خراسان رضوی",
  "City": "نوخندان",
  "latitude(φ)": "37° 31' 9.649\" N",
  "longitude(λ)": "58° 59' 20.098\" E",
  "lat": 37.51934814453125,
  "long": 58.988914489746094
 },
 {
  "State": "خراسان رضوی",
  "City": "نیشابور",
  "latitude(φ)": "36° 12' 28.537\" N",
  "longitude(λ)": "58° 47' 38.501\" E",
  "lat": 36.20792770385742,
  "long": 58.794029235839844
 },
 {
  "State": "خراسان رضوی",
  "City": "نیل شهر",
  "latitude(φ)": "35° 7' 22.278\" N",
  "longitude(λ)": "60° 46' 23.282\" E",
  "lat": 35.12285614013672,
  "long": 60.77313232421875
 },
 {
  "State": "خراسان رضوی",
  "City": "همت آباد",
  "latitude(φ)": "36° 17' 52.012\" N",
  "longitude(λ)": "58° 27' 50.972\" E",
  "lat": 36.29778289794922,
  "long": 58.46415710449219
 },
 {
  "State": "خراسان رضوی",
  "City": "یونسی",
  "latitude(φ)": "34° 48' 19.379\" N",
  "longitude(λ)": "58° 26' 13.967\" E",
  "lat": 34.805381774902344,
  "long": 58.43721389770508
 },
 {
  "State": "خراسان شمالی",
  "City": "اسفراین",
  "latitude(φ)": "37° 4' 21.594\" N",
  "longitude(λ)": "57° 30' 34.790\" E",
  "lat": 37.07266616821289,
  "long": 57.50966262817383
 },
 {
  "State": "خراسان شمالی",
  "City": "ایور",
  "latitude(φ)": "36° 58' 7.723\" N",
  "longitude(λ)": "56° 15' 38.826\" E",
  "lat": 36.96881103515625,
  "long": 56.26078414916992
 },
 {
  "State": "خراسان شمالی",
  "City": "آشخانه",
  "latitude(φ)": "37° 33' 29.444\" N",
  "longitude(λ)": "56° 55' 26.267\" E",
  "lat": 37.55817794799805,
  "long": 56.9239616394043
 },
 {
  "State": "خراسان شمالی",
  "City": "بجنورد",
  "latitude(φ)": "37° 26' 48.440\" N",
  "longitude(λ)": "57° 19' 38.842\" E",
  "lat": 37.4467887878418,
  "long": 57.327457427978516
 },
 {
  "State": "خراسان شمالی",
  "City": "پیش قلعه",
  "latitude(φ)": "37° 38' 54.964\" N",
  "longitude(λ)": "57° 0' 5.321\" E",
  "lat": 37.64860153198242,
  "long": 57.0014762878418
 },
 {
  "State": "خراسان شمالی",
  "City": "تیتكانلو",
  "latitude(φ)": "37° 16' 49.994\" N",
  "longitude(λ)": "58° 17' 22.240\" E",
  "lat": 37.280555725097656,
  "long": 58.289512634277344
 },
 {
  "State": "خراسان شمالی",
  "City": "جاجرم",
  "latitude(φ)": "36° 57' 20.318\" N",
  "longitude(λ)": "56° 21' 27.997\" E",
  "lat": 36.95564270019531,
  "long": 56.3577766418457
 },
 {
  "State": "خراسان شمالی",
  "City": "حصارگرمخان",
  "latitude(φ)": "37° 30' 57.071\" N",
  "longitude(λ)": "57° 29' 5.590\" E",
  "lat": 37.51585388183594,
  "long": 57.484886169433594
 },
 {
  "State": "خراسان شمالی",
  "City": "درق",
  "latitude(φ)": "36° 58' 19.445\" N",
  "longitude(λ)": "56° 12' 52.200\" E",
  "lat": 36.972068786621094,
  "long": 56.214500427246094
 },
 {
  "State": "خراسان شمالی",
  "City": "راز",
  "latitude(φ)": "37° 56' 4.038\" N",
  "longitude(λ)": "57° 6' 27.166\" E",
  "lat": 37.93445587158203,
  "long": 57.107547760009766
 },
 {
  "State": "خراسان شمالی",
  "City": "سنخواست",
  "latitude(φ)": "37° 5' 59.654\" N",
  "longitude(λ)": "56° 51' 5.609\" E",
  "lat": 37.09990310668945,
  "long": 56.851558685302734
 },
 {
  "State": "خراسان شمالی",
  "City": "شوقان",
  "latitude(φ)": "37° 20' 29.890\" N",
  "longitude(λ)": "56° 53' 13.492\" E",
  "lat": 37.341636657714844,
  "long": 56.887081146240234
 },
 {
  "State": "خراسان شمالی",
  "City": "شیروان",
  "latitude(φ)": "37° 24' 5.461\" N",
  "longitude(λ)": "57° 55' 27.001\" E",
  "lat": 37.40151596069336,
  "long": 57.92416763305664
 },
 {
  "State": "خراسان شمالی",
  "City": "صفی آباد",
  "latitude(φ)": "36° 41' 43.807\" N",
  "longitude(λ)": "57° 55' 37.286\" E",
  "lat": 36.69550323486328,
  "long": 57.927024841308594
 },
 {
  "State": "خراسان شمالی",
  "City": "فاروج",
  "latitude(φ)": "37° 13' 25.295\" N",
  "longitude(λ)": "58° 13' 8.062\" E",
  "lat": 37.22369384765625,
  "long": 58.21890640258789
 },
 {
  "State": "خراسان شمالی",
  "City": "قاضی",
  "latitude(φ)": "37° 29' 42.025\" N",
  "longitude(λ)": "56° 44' 55.165\" E",
  "lat": 37.4950065612793,
  "long": 56.7486572265625
 },
 {
  "State": "خراسان شمالی",
  "City": "گرمه",
  "latitude(φ)": "36° 58' 42.668\" N",
  "longitude(λ)": "56° 18' 5.544\" E",
  "lat": 36.978519439697266,
  "long": 56.30154037475586
 },
 {
  "State": "خراسان شمالی",
  "City": "لوجلی",
  "latitude(φ)": "37° 36' 25.340\" N",
  "longitude(λ)": "57° 51' 27.493\" E",
  "lat": 37.60704040527344,
  "long": 57.857635498046875
 },
 {
  "State": "خوزستان",
  "City": "اروندكنار",
  "latitude(φ)": "29° 58' 41.095\" N",
  "longitude(λ)": "48° 31' 0.570\" E",
  "lat": 29.97808265686035,
  "long": 48.51682662963867
 },
 {
  "State": "خوزستان",
  "City": "الوان",
  "latitude(φ)": "31° 52' 26.767\" N",
  "longitude(λ)": "48° 20' 28.014\" E",
  "lat": 31.874101638793945,
  "long": 48.34111404418945
 },
 {
  "State": "خوزستان",
  "City": "امیدیه",
  "latitude(φ)": "30° 45' 20.185\" N",
  "longitude(λ)": "49° 42' 44.104\" E",
  "lat": 30.75560760498047,
  "long": 49.712249755859375
 },
 {
  "State": "خوزستان",
  "City": "اندیمشك",
  "latitude(φ)": "32° 25' 28.718\" N",
  "longitude(λ)": "48° 22' 23.156\" E",
  "lat": 32.424644470214844,
  "long": 48.37310028076172
 },
 {
  "State": "خوزستان",
  "City": "اهواز",
  "latitude(φ)": "31° 14' 31.247\" N",
  "longitude(λ)": "48° 40' 16.583\" E",
  "lat": 31.242013931274414,
  "long": 48.67127227783203
 },
 {
  "State": "خوزستان",
  "City": "ایذه",
  "latitude(φ)": "31° 49' 50.462\" N",
  "longitude(λ)": "49° 51' 53.766\" E",
  "lat": 31.830684661865234,
  "long": 49.86493682861328
 },
 {
  "State": "خوزستان",
  "City": "آبادان",
  "latitude(φ)": "30° 21' 21.629\" N",
  "longitude(λ)": "48° 16' 48.194\" E",
  "lat": 30.356008529663086,
  "long": 48.280052185058594
 },
 {
  "State": "خوزستان",
  "City": "آغاجاری",
  "latitude(φ)": "30° 41' 58.992\" N",
  "longitude(λ)": "49° 49' 47.168\" E",
  "lat": 30.69972038269043,
  "long": 49.829769134521484
 },
 {
  "State": "خوزستان",
  "City": "باغ ملك",
  "latitude(φ)": "31° 30' 47.898\" N",
  "longitude(λ)": "49° 53' 25.778\" E",
  "lat": 31.5133056640625,
  "long": 49.89049530029297
 },
 {
  "State": "خوزستان",
  "City": "بستان",
  "latitude(φ)": "31° 43' 17.900\" N",
  "longitude(λ)": "47° 58' 52.136\" E",
  "lat": 31.72163963317871,
  "long": 47.98114776611328
 },
 {
  "State": "خوزستان",
  "City": "بندرامام خمینی",
  "latitude(φ)": "30° 26' 19.316\" N",
  "longitude(λ)": "49° 4' 32.423\" E",
  "lat": 30.43869972229004,
  "long": 49.0756721496582
 },
 {
  "State": "خوزستان",
  "City": "بندرماهشهر",
  "latitude(φ)": "30° 28' 10.092\" N",
  "longitude(λ)": "49° 10' 48.029\" E",
  "lat": 30.46946907043457,
  "long": 49.18000793457031
 },
 {
  "State": "خوزستان",
  "City": "بهبهان",
  "latitude(φ)": "30° 35' 46.550\" N",
  "longitude(λ)": "50° 14' 29.792\" E",
  "lat": 30.596263885498047,
  "long": 50.241607666015625
 },
 {
  "State": "خوزستان",
  "City": "تركالكی",
  "latitude(φ)": "32° 14' 33.634\" N",
  "longitude(λ)": "48° 50' 46.756\" E",
  "lat": 32.24267578125,
  "long": 48.84632110595703
 },
 {
  "State": "خوزستان",
  "City": "جایزان",
  "latitude(φ)": "30° 52' 29.824\" N",
  "longitude(λ)": "49° 51' 15.970\" E",
  "lat": 30.874950408935547,
  "long": 49.854434967041016
 },
 {
  "State": "خوزستان",
  "City": "جنت مكان",
  "latitude(φ)": "32° 11' 3.502\" N",
  "longitude(λ)": "48° 48' 58.126\" E",
  "lat": 32.18430709838867,
  "long": 48.81614685058594
 },
 {
  "State": "خوزستان",
  "City": "چغامیش",
  "latitude(φ)": "32° 12' 34.128\" N",
  "longitude(λ)": "48° 32' 44.002\" E",
  "lat": 32.20948028564453,
  "long": 48.545555114746094
 },
 {
  "State": "خوزستان",
  "City": "چمران",
  "latitude(φ)": "30° 42' 48.827\" N",
  "longitude(λ)": "49° 10' 36.725\" E",
  "lat": 30.713563919067383,
  "long": 49.1768684387207
 },
 {
  "State": "خوزستان",
  "City": "چوئبده",
  "latitude(φ)": "30° 12' 0.166\" N",
  "longitude(λ)": "48° 33' 11.480\" E",
  "lat": 30.20004653930664,
  "long": 48.55318832397461
 },
 {
  "State": "خوزستان",
  "City": "حر",
  "latitude(φ)": "32° 8' 39.185\" N",
  "longitude(λ)": "48° 23' 25.890\" E",
  "lat": 32.14421844482422,
  "long": 48.390525817871094
 },
 {
  "State": "خوزستان",
  "City": "حسینیه",
  "latitude(φ)": "32° 39' 48.071\" N",
  "longitude(λ)": "48° 14' 44.232\" E",
  "lat": 32.663352966308594,
  "long": 48.24562072753906
 },
 {
  "State": "خوزستان",
  "City": "حمزه",
  "latitude(φ)": "32° 23' 46.410\" N",
  "longitude(λ)": "48° 34' 42.748\" E",
  "lat": 32.39622497558594,
  "long": 48.57854080200195
 },
 {
  "State": "خوزستان",
  "City": "حمیدیه",
  "latitude(φ)": "31° 28' 53.832\" N",
  "longitude(λ)": "48° 25' 56.640\" E",
  "lat": 31.48162078857422,
  "long": 48.43239974975586
 },
 {
  "State": "خوزستان",
  "City": "خرمشهر",
  "latitude(φ)": "30° 26' 41.348\" N",
  "longitude(λ)": "48° 10' 43.644\" E",
  "lat": 30.4448184967041,
  "long": 48.17879104614258
 },
 {
  "State": "خوزستان",
  "City": "دارخوین",
  "latitude(φ)": "30° 44' 41.759\" N",
  "longitude(λ)": "48° 25' 45.289\" E",
  "lat": 30.744932174682617,
  "long": 48.42924880981445
 },
 {
  "State": "خوزستان",
  "City": "دزآب",
  "latitude(φ)": "32° 17' 16.462\" N",
  "longitude(λ)": "48° 25' 41.657\" E",
  "lat": 32.287906646728516,
  "long": 48.42823791503906
 },
 {
  "State": "خوزستان",
  "City": "دزفول",
  "latitude(φ)": "32° 22' 44.022\" N",
  "longitude(λ)": "48° 25' 9.484\" E",
  "lat": 32.3788948059082,
  "long": 48.4193000793457
 },
 {
  "State": "خوزستان",
  "City": "دهدز",
  "latitude(φ)": "31° 42' 35.842\" N",
  "longitude(λ)": "50° 17' 18.704\" E",
  "lat": 31.7099552154541,
  "long": 50.28852844238281
 },
 {
  "State": "خوزستان",
  "City": "رامشیر",
  "latitude(φ)": "30° 53' 33.918\" N",
  "longitude(λ)": "49° 24' 31.784\" E",
  "lat": 30.89275550842285,
  "long": 49.40882873535156
 },
 {
  "State": "خوزستان",
  "City": "رامهرمز",
  "latitude(φ)": "31° 15' 33.178\" N",
  "longitude(λ)": "49° 36' 19.127\" E",
  "lat": 31.25921630859375,
  "long": 49.60531234741211
 },
 {
  "State": "خوزستان",
  "City": "رفیع",
  "latitude(φ)": "31° 35' 50.766\" N",
  "longitude(λ)": "47° 53' 39.026\" E",
  "lat": 31.597434997558594,
  "long": 47.89417266845703
 },
 {
  "State": "خوزستان",
  "City": "زهره",
  "latitude(φ)": "30° 28' 5.358\" N",
  "longitude(λ)": "49° 40' 58.836\" E",
  "lat": 30.468154907226562,
  "long": 49.68301010131836
 },
 {
  "State": "خوزستان",
  "City": "سالند",
  "latitude(φ)": "32° 29' 38.648\" N",
  "longitude(λ)": "48° 50' 3.610\" E",
  "lat": 32.49406814575195,
  "long": 48.83433532714844
 },
 {
  "State": "خوزستان",
  "City": "سردشت ",
  "latitude(φ)": "30° 19' 40.102\" N",
  "longitude(λ)": "50° 13' 4.364\" E",
  "lat": 30.32780647277832,
  "long": 50.21788024902344
 },
 {
  "State": "خوزستان",
  "City": "سماله",
  "latitude(φ)": "32° 11' 38.440\" N",
  "longitude(λ)": "48° 51' 27.914\" E",
  "lat": 32.19401168823242,
  "long": 48.85775375366211
 },
 {
  "State": "خوزستان",
  "City": "سوسنگرد",
  "latitude(φ)": "31° 33' 31.014\" N",
  "longitude(λ)": "48° 11' 22.517\" E",
  "lat": 31.55861473083496,
  "long": 48.1895866394043
 },
 {
  "State": "خوزستان",
  "City": "شادگان",
  "latitude(φ)": "30° 38' 28.547\" N",
  "longitude(λ)": "48° 39' 48.730\" E",
  "lat": 30.64126205444336,
  "long": 48.663536071777344
 },
 {
  "State": "خوزستان",
  "City": "شاوور",
  "latitude(φ)": "32° 3' 31.266\" N",
  "longitude(λ)": "48° 18' 3.139\" E",
  "lat": 32.058685302734375,
  "long": 48.300872802734375
 },
 {
  "State": "خوزستان",
  "City": "شرافت",
  "latitude(φ)": "32° 5' 17.092\" N",
  "longitude(λ)": "48° 46' 3.785\" E",
  "lat": 32.08808135986328,
  "long": 48.76771926879883
 },
 {
  "State": "خوزستان",
  "City": "شوش",
  "latitude(φ)": "32° 12' 24.282\" N",
  "longitude(λ)": "48° 15' 26.737\" E",
  "lat": 32.20674514770508,
  "long": 48.25742721557617
 },
 {
  "State": "خوزستان",
  "City": "شوشتر",
  "latitude(φ)": "32° 3' 16.704\" N",
  "longitude(λ)": "48° 50' 4.981\" E",
  "lat": 32.05464172363281,
  "long": 48.834716796875
 },
 {
  "State": "خوزستان",
  "City": "شیبان",
  "latitude(φ)": "31° 23' 4.466\" N",
  "longitude(λ)": "48° 47' 13.610\" E",
  "lat": 31.38457489013672,
  "long": 48.787113189697266
 },
 {
  "State": "خوزستان",
  "City": "صالح شهر",
  "latitude(φ)": "32° 12' 49.219\" N",
  "longitude(λ)": "48° 40' 19.862\" E",
  "lat": 32.21367263793945,
  "long": 48.672183990478516
 },
 {
  "State": "خوزستان",
  "City": "صالح مشطط",
  "latitude(φ)": "32° 18' 48.892\" N",
  "longitude(λ)": "48° 8' 53.045\" E",
  "lat": 32.31357955932617,
  "long": 48.148067474365234
 },
 {
  "State": "خوزستان",
  "City": "صفی آباد ",
  "latitude(φ)": "32° 14' 52.246\" N",
  "longitude(λ)": "48° 25' 17.432\" E",
  "lat": 32.24784469604492,
  "long": 48.4215087890625
 },
 {
  "State": "خوزستان",
  "City": "صیدون",
  "latitude(φ)": "31° 21' 56.675\" N",
  "longitude(λ)": "50° 4' 53.018\" E",
  "lat": 31.36574363708496,
  "long": 50.08139419555664
 },
 {
  "State": "خوزستان",
  "City": "قلعه تل",
  "latitude(φ)": "31° 37' 53.393\" N",
  "longitude(λ)": "49° 53' 24.644\" E",
  "lat": 31.631498336791992,
  "long": 49.89017868041992
 },
 {
  "State": "خوزستان",
  "City": "قلعه خواجه",
  "latitude(φ)": "32° 12' 19.080\" N",
  "longitude(λ)": "49° 26' 55.334\" E",
  "lat": 32.205299377441406,
  "long": 49.44870376586914
 },
 {
  "State": "خوزستان",
  "City": "گتوند",
  "latitude(φ)": "32° 14' 49.978\" N",
  "longitude(λ)": "48° 49' 4.170\" E",
  "lat": 32.247215270996094,
  "long": 48.81782531738281
 },
 {
  "State": "خوزستان",
  "City": "گوریه",
  "latitude(φ)": "31° 51' 23.911\" N",
  "longitude(λ)": "48° 45' 20.851\" E",
  "lat": 31.85664176940918,
  "long": 48.75579071044922
 },
 {
  "State": "خوزستان",
  "City": "لالی",
  "latitude(φ)": "32° 19' 47.345\" N",
  "longitude(λ)": "49° 5' 34.735\" E",
  "lat": 32.32981872558594,
  "long": 49.09298324584961
 },
 {
  "State": "خوزستان",
  "City": "مسجدسلیمان",
  "latitude(φ)": "31° 57' 52.787\" N",
  "longitude(λ)": "49° 17' 10.813\" E",
  "lat": 31.964662551879883,
  "long": 49.286338806152344
 },
 {
  "State": "خوزستان",
  "City": "مشراگه",
  "latitude(φ)": "31° 0' 38.531\" N",
  "longitude(λ)": "49° 26' 16.577\" E",
  "lat": 31.01070213317871,
  "long": 49.43793869018555
 },
 {
  "State": "خوزستان",
  "City": "مقاومت",
  "latitude(φ)": "30° 24' 24.804\" N",
  "longitude(λ)": "48° 11' 43.184\" E",
  "lat": 30.406890869140625,
  "long": 48.19532775878906
 },
 {
  "State": "خوزستان",
  "City": "ملاثانی",
  "latitude(φ)": "31° 35' 7.256\" N",
  "longitude(λ)": "48° 53' 13.250\" E",
  "lat": 31.58534812927246,
  "long": 48.88701248168945
 },
 {
  "State": "خوزستان",
  "City": "میانرود",
  "latitude(φ)": "32° 13' 40.318\" N",
  "longitude(λ)": "48° 25' 28.056\" E",
  "lat": 32.227867126464844,
  "long": 48.424461364746094
 },
 {
  "State": "خوزستان",
  "City": "میداود",
  "latitude(φ)": "31° 22' 20.881\" N",
  "longitude(λ)": "49° 48' 49.183\" E",
  "lat": 31.372467041015625,
  "long": 49.813663482666016
 },
 {
  "State": "خوزستان",
  "City": "مینوشهر",
  "latitude(φ)": "30° 21' 38.354\" N",
  "longitude(λ)": "48° 12' 37.426\" E",
  "lat": 30.360654830932617,
  "long": 48.21039581298828
 },
 {
  "State": "خوزستان",
  "City": "ویس",
  "latitude(φ)": "31° 29' 2.918\" N",
  "longitude(λ)": "48° 52' 28.229\" E",
  "lat": 31.48414421081543,
  "long": 48.874507904052734
 },
 {
  "State": "خوزستان",
  "City": "هفتگل",
  "latitude(φ)": "31° 26' 44.441\" N",
  "longitude(λ)": "49° 31' 59.293\" E",
  "lat": 31.4456787109375,
  "long": 49.533138275146484
 },
 {
  "State": "خوزستان",
  "City": "هندیجان",
  "latitude(φ)": "30° 13' 25.273\" N",
  "longitude(λ)": "49° 42' 41.040\" E",
  "lat": 30.22368621826172,
  "long": 49.71139907836914
 },
 {
  "State": "خوزستان",
  "City": "هویزه",
  "latitude(φ)": "31° 27' 38.452\" N",
  "longitude(λ)": "48° 4' 38.957\" E",
  "lat": 31.460681915283203,
  "long": 48.07748794555664
 },
 {
  "State": "زنجان",
  "City": "ابهر",
  "latitude(φ)": "36° 8' 10.079\" N",
  "longitude(λ)": "49° 13' 28.366\" E",
  "lat": 36.136131286621094,
  "long": 49.224544525146484
 },
 {
  "State": "زنجان",
  "City": "ارمغانخانه",
  "latitude(φ)": "36° 58' 41.336\" N",
  "longitude(λ)": "48° 22' 18.988\" E",
  "lat": 36.9781494140625,
  "long": 48.37194061279297
 },
 {
  "State": "زنجان",
  "City": "آب بر",
  "latitude(φ)": "36° 55' 40.264\" N",
  "longitude(λ)": "48° 57' 22.198\" E",
  "lat": 36.927852630615234,
  "long": 48.9561653137207
 },
 {
  "State": "زنجان",
  "City": "چورزق",
  "latitude(φ)": "36° 59' 34.361\" N",
  "longitude(λ)": "48° 46' 42.690\" E",
  "lat": 36.99287796020508,
  "long": 48.778526306152344
 },
 {
  "State": "زنجان",
  "City": "حلب",
  "latitude(φ)": "36° 17' 46.367\" N",
  "longitude(λ)": "48° 3' 49.907\" E",
  "lat": 36.29621124267578,
  "long": 48.06386184692383
 },
 {
  "State": "زنجان",
  "City": "خرمدره",
  "latitude(φ)": "36° 12' 41.245\" N",
  "longitude(λ)": "49° 11' 43.397\" E",
  "lat": 36.211456298828125,
  "long": 49.19538879394531
 },
 {
  "State": "زنجان",
  "City": "دندی",
  "latitude(φ)": "36° 33' 3.942\" N",
  "longitude(λ)": "47° 37' 12.878\" E",
  "lat": 36.55109405517578,
  "long": 47.620243072509766
 },
 {
  "State": "زنجان",
  "City": "زرین آباد",
  "latitude(φ)": "36° 25' 45.242\" N",
  "longitude(λ)": "48° 16' 37.016\" E",
  "lat": 36.42923355102539,
  "long": 48.27695083618164
 },
 {
  "State": "زنجان",
  "City": "زرین رود",
  "latitude(φ)": "35° 45' 22.381\" N",
  "longitude(λ)": "48° 28' 51.931\" E",
  "lat": 35.75621795654297,
  "long": 48.4810905456543
 },
 {
  "State": "زنجان",
  "City": "زنجان",
  "latitude(φ)": "36° 40' 46.394\" N",
  "longitude(λ)": "48° 29' 34.786\" E",
  "lat": 36.6795539855957,
  "long": 48.49299621582031
 },
 {
  "State": "زنجان",
  "City": "سجاس",
  "latitude(φ)": "36° 14' 26.120\" N",
  "longitude(λ)": "48° 33' 11.113\" E",
  "lat": 36.2405891418457,
  "long": 48.55308532714844
 },
 {
  "State": "زنجان",
  "City": "سلطانیه",
  "latitude(φ)": "36° 26' 1.072\" N",
  "longitude(λ)": "48° 47' 43.814\" E",
  "lat": 36.433631896972656,
  "long": 48.79550552368164
 },
 {
  "State": "زنجان",
  "City": "سهرورد",
  "latitude(φ)": "36° 4' 22.109\" N",
  "longitude(λ)": "48° 26' 20.764\" E",
  "lat": 36.07280731201172,
  "long": 48.43910217285156
 },
 {
  "State": "زنجان",
  "City": "صائین قلعه",
  "latitude(φ)": "36° 18' 17.161\" N",
  "longitude(λ)": "49° 4' 20.474\" E",
  "lat": 36.30476760864258,
  "long": 49.07235336303711
 },
 {
  "State": "زنجان",
  "City": "قیدار",
  "latitude(φ)": "36° 6' 30.845\" N",
  "longitude(λ)": "48° 35' 23.964\" E",
  "lat": 36.10856628417969,
  "long": 48.589988708496094
 },
 {
  "State": "زنجان",
  "City": "گرماب",
  "latitude(φ)": "35° 50' 43.937\" N",
  "longitude(λ)": "48° 12' 4.046\" E",
  "lat": 35.84553909301758,
  "long": 48.20112228393555
 },
 {
  "State": "زنجان",
  "City": "ماه نشان",
  "latitude(φ)": "36° 44' 36.895\" N",
  "longitude(λ)": "47° 40' 14.322\" E",
  "lat": 36.74358367919922,
  "long": 47.67064666748047
 },
 {
  "State": "زنجان",
  "City": "هیدج",
  "latitude(φ)": "36° 15' 14.537\" N",
  "longitude(λ)": "49° 7' 46.506\" E",
  "lat": 36.2540397644043,
  "long": 49.12958526611328
 },
 {
  "State": "سمنان",
  "City": "امیریه",
  "latitude(φ)": "36° 1' 40.980\" N",
  "longitude(λ)": "54° 8' 31.934\" E",
  "lat": 36.02804946899414,
  "long": 54.14220428466797
 },
 {
  "State": "سمنان",
  "City": "ایوانكی",
  "latitude(φ)": "35° 20' 41.903\" N",
  "longitude(λ)": "52° 4' 8.314\" E",
  "lat": 35.344974517822266,
  "long": 52.06897735595703
 },
 {
  "State": "سمنان",
  "City": "آرادان",
  "latitude(φ)": "35° 15' 5.929\" N",
  "longitude(λ)": "52° 29' 51.144\" E",
  "lat": 35.25164794921875,
  "long": 52.49753952026367
 },
 {
  "State": "سمنان",
  "City": "بسطام",
  "latitude(φ)": "36° 29' 4.067\" N",
  "longitude(λ)": "55° 0' 3.244\" E",
  "lat": 36.48446273803711,
  "long": 55.00090026855469
 },
 {
  "State": "سمنان",
  "City": "بیارجمند",
  "latitude(φ)": "36° 4' 43.205\" N",
  "longitude(λ)": "55° 48' 26.752\" E",
  "lat": 36.07866668701172,
  "long": 55.807430267333984
 },
 {
  "State": "سمنان",
  "City": "دامغان",
  "latitude(φ)": "36° 9' 54.716\" N",
  "longitude(λ)": "54° 20' 41.428\" E",
  "lat": 36.165199279785156,
  "long": 54.34484100341797
 },
 {
  "State": "سمنان",
  "City": "درجزین",
  "latitude(φ)": "35° 38' 44.189\" N",
  "longitude(λ)": "53° 20' 1.104\" E",
  "lat": 35.645606994628906,
  "long": 53.333641052246094
 },
 {
  "State": "سمنان",
  "City": "دیباج",
  "latitude(φ)": "36° 25' 49.883\" N",
  "longitude(λ)": "54° 13' 44.080\" E",
  "lat": 36.43052291870117,
  "long": 54.228912353515625
 },
 {
  "State": "سمنان",
  "City": "سرخه",
  "latitude(φ)": "35° 27' 49.410\" N",
  "longitude(λ)": "53° 12' 37.282\" E",
  "lat": 35.46372604370117,
  "long": 53.210357666015625
 },
 {
  "State": "سمنان",
  "City": "سمنان",
  "latitude(φ)": "35° 34' 37.610\" N",
  "longitude(λ)": "53° 22' 54.944\" E",
  "lat": 35.57711410522461,
  "long": 53.381927490234375
 },
 {
  "State": "سمنان",
  "City": "شاهرود",
  "latitude(φ)": "36° 24' 43.517\" N",
  "longitude(λ)": "54° 58' 20.867\" E",
  "lat": 36.412086486816406,
  "long": 54.97246170043945
 },
 {
  "State": "سمنان",
  "City": "شهمیرزاد",
  "latitude(φ)": "35° 46' 12.842\" N",
  "longitude(λ)": "53° 20' 0.906\" E",
  "lat": 35.770233154296875,
  "long": 53.33358383178711
 },
 {
  "State": "سمنان",
  "City": "كلاته خیج",
  "latitude(φ)": "36° 40' 14.023\" N",
  "longitude(λ)": "55° 18' 1.753\" E",
  "lat": 36.670562744140625,
  "long": 55.30048751831055
 },
 {
  "State": "سمنان",
  "City": "گرمسار",
  "latitude(φ)": "35° 13' 4.166\" N",
  "longitude(λ)": "52° 20' 1.057\" E",
  "lat": 35.21782302856445,
  "long": 52.33362579345703
 },
 {
  "State": "سمنان",
  "City": "مجن",
  "latitude(φ)": "36° 28' 48.796\" N",
  "longitude(λ)": "54° 38' 52.721\" E",
  "lat": 36.480220794677734,
  "long": 54.647979736328125
 },
 {
  "State": "سمنان",
  "City": "مهدی شهر",
  "latitude(φ)": "35° 41' 58.740\" N",
  "longitude(λ)": "53° 20' 45.136\" E",
  "lat": 35.699649810791016,
  "long": 53.34587097167969
 },
 {
  "State": "سمنان",
  "City": "میامی",
  "latitude(φ)": "36° 24' 33.570\" N",
  "longitude(λ)": "55° 39' 5.951\" E",
  "lat": 36.409324645996094,
  "long": 55.65165328979492
 },
 {
  "State": "سیستان وبلوچستان",
  "City": "ادیمی",
  "latitude(φ)": "31° 7' 2.831\" N",
  "longitude(λ)": "61° 24' 27.515\" E",
  "lat": 31.11745262145996,
  "long": 61.40764236450195
 },
 {
  "State": "سیستان وبلوچستان",
  "City": "اسپكه",
  "latitude(φ)": "26° 50' 14.492\" N",
  "longitude(λ)": "60° 10' 20.377\" E",
  "lat": 26.837358474731445,
  "long": 60.172325134277344
 },
 {
  "State": "سیستان وبلوچستان",
  "City": "ایرانشهر",
  "latitude(φ)": "27° 12' 14.990\" N",
  "longitude(λ)": "60° 40' 30.461\" E",
  "lat": 27.204164505004883,
  "long": 60.67512893676758
 },
 {
  "State": "سیستان وبلوچستان",
  "City": "بزمان",
  "latitude(φ)": "27° 51' 1.242\" N",
  "longitude(λ)": "60° 10' 31.739\" E",
  "lat": 27.850345611572266,
  "long": 60.17548370361328
 },
 {
  "State": "سیستان وبلوچستان",
  "City": "بمپور",
  "latitude(φ)": "27° 11' 37.464\" N",
  "longitude(λ)": "60° 27' 22.388\" E",
  "lat": 27.193740844726562,
  "long": 60.45621871948242
 },
 {
  "State": "سیستان وبلوچستان",
  "City": "بنت",
  "latitude(φ)": "26° 17' 12.563\" N",
  "longitude(λ)": "59° 31' 21.608\" E",
  "lat": 26.286823272705078,
  "long": 59.52267074584961
 },
 {
  "State": "سیستان وبلوچستان",
  "City": "بنجار",
  "latitude(φ)": "31° 2' 34.418\" N",
  "longitude(λ)": "61° 34' 2.827\" E",
  "lat": 31.04289436340332,
  "long": 61.56745147705078
 },
 {
  "State": "سیستان وبلوچستان",
  "City": "پیشین",
  "latitude(φ)": "26° 4' 47.478\" N",
  "longitude(λ)": "61° 44' 54.240\" E",
  "lat": 26.07985496520996,
  "long": 61.7484016418457
 },
 {
  "State": "سیستان وبلوچستان",
  "City": "جالق",
  "latitude(φ)": "27° 34' 58.033\" N",
  "longitude(λ)": "62° 42' 2.606\" E",
  "lat": 27.582786560058594,
  "long": 62.70072555541992
 },
 {
  "State": "سیستان وبلوچستان",
  "City": "چاه بهار",
  "latitude(φ)": "25° 17' 40.268\" N",
  "longitude(λ)": "60° 38' 51.731\" E",
  "lat": 25.294519424438477,
  "long": 60.647701263427734
 },
 {
  "State": "سیستان وبلوچستان",
  "City": "خاش",
  "latitude(φ)": "28° 12' 33.973\" N",
  "longitude(λ)": "61° 12' 10.307\" E",
  "lat": 28.209436416625977,
  "long": 61.20286178588867
 },
 {
  "State": "سیستان وبلوچستان",
  "City": "دوست محمد",
  "latitude(φ)": "31° 8' 33.835\" N",
  "longitude(λ)": "61° 47' 34.105\" E",
  "lat": 31.142732620239258,
  "long": 61.792808532714844
 },
 {
  "State": "سیستان وبلوچستان",
  "City": "راسك",
  "latitude(φ)": "26° 13' 59.704\" N",
  "longitude(λ)": "61° 24' 19.584\" E",
  "lat": 26.233251571655273,
  "long": 61.40544128417969
 },